stop_id,stop_name,stop_desc,stop_lat,stop_lon,zone_id,stop_url
0,BLANDAIN Eglise,,4.320104,49.981466,,
1,LEVAL-TRAHEGNIES Rue Mont-Sainte-Aldegonde,,4.005045,50.565528,,
2,LEVAL-TRAHEGNIES Rue Mont-Sainte-Aldegonde,,4.004663,50.565607,,
3,LIEGE Rue du Limbourg,,4.372057,51.422249,,
4,LIEGE Boulevard des Hauteurs,,4.370102,51.419310,,
5,VERVIERS Rue de Hodimont,,4.277085,51.604782,,
6,LIEGE Rue Wesphal,,4.368032,51.418699,,
7,VERVIERS Rue de Hodimont,,4.276232,51.605599,,
8,SOUMAGNE Voie de l'Eau,,4.309415,51.544751,,
9,SOUMAGNE place Ferrer,,4.303244,51.536201,,
10,SOUMAGNE Voie de l'Eau,,4.309372,51.544967,,
11,SOUMAGNE Voie de l'Eau,,4.309416,51.544446,,
12,CORBION Centre,,3.731686,51.126896,,
13,CORBION Centre,,3.731959,51.126798,,
14,LEIGNON Rue de Custinne,,3.744272,51.130037,,
15,TAVIERS Rue du Warichet,,4.303347,51.019661,,
16,TAVIERS Rue du Warichet,,4.303419,51.019769,,
17,BEHO Carrefour,,3.667539,51.700849,,
18,BEHO Carrefour,,3.667397,51.700723,,
19,COURTIL Le Castel,,3.670970,51.649833,,
20,SOY Camping,,3.781384,51.382203,,
21,DEIFFELT Carrefour,,3.637426,51.709162,,
22,BIEVRE Route d'Houdremont,,3.228448,51.067178,,
23,THIEU Ascenseur Strépy-Thieu,,4.080530,50.495373,,
24,AVELGEM Station (aankomst)/SNCB (arrivée),,4.544724,50.073222,,
25,DOTTIGNIES/DOTTENIJS Ecoles/Scholen,,4.476724,49.987681,,
26,DOTTIGNIES/DOTTENIJS Ecoles/Scholen,,4.476812,49.987773,,
27,DOTTIGNIES/DOTTENIJS Scierie/Zagerij,,4.473138,49.987457,,
28,HERSEAUX Place/Plaats,,4.473005,49.939084,,
29,VELAINES Place,,4.383348,50.100608,,
30,VELAINES Place,,4.383564,50.100650,,
31,HERMALLE-SOUS-HUY Ecole Communale,,4.212833,51.292975,,
32,HERMALLE-SOUS-HUY Ecole Communale,,4.212747,51.292885,,
33,GHLIN Air Liquide,,4.081473,50.332413,,
34,WANGENIES Place,,4.076726,50.755672,,
35,WANGENIES Route de Mellet,,4.095854,50.759131,,
36,FARCIENNES Campinaire,,3.998472,50.771298,,
37,CHARLEROI Beaux-Arts,,3.979804,50.707435,,
38,DAUSSOIS La Barrière,,3.662220,50.716002,,
39,DAUSSOIS La Barrière,,3.661251,50.717056,,
40,DAUSSOIS Route de Philippeville,,3.669356,50.706847,,
41,DAUSSOIS Route de Philippeville,,3.669416,50.706942,,
42,DAUSSOIS Rue des Rocailles,,3.665468,50.711761,,
43,DAUSSOIS Rue des Rocailles,,3.665681,50.711646,,
44,WANGENIES Route de Mellet,,4.096161,50.759135,,
45,WANGENIES Rue des Martyrs,,4.083298,50.756818,,
46,WANGENIES Place,,4.076939,50.755609,,
47,RANSART Rue du Petit Sablon,,4.048896,50.732727,,
48,RANSART Rue César de Paepe,,4.047472,50.731296,,
49,RANSART Rue du Petit Sablon,,4.048970,50.732668,,
50,FLEURUS Chapelle,,4.089139,50.769925,,
51,FLEURUS Chapelle,,4.089194,50.770035,,
52,RANSART Rue César de Paepe,,4.047419,50.731108,,
53,STATTE Sous les Roches,,4.168188,51.202298,,
54,STATTE Sous les Roches,,4.166818,51.201972,,
55,MARVIE Chapelle,,3.295567,51.542765,,
56,STERPIGNY Route de Gouvy,,3.622305,51.635104,,
57,LIBRAMONT I.C.A.,,3.195674,51.309656,,
58,ANLOY Gare,,3.265934,51.210969,,
59,SAINTE-ODE Route de l'Hôpital,,3.419240,51.390095,,
60,BASTOGNE Route de Marche,,3.325231,51.513246,,
61,BASTOGNE Route de Marche,,3.325468,51.513819,,
62,AVISCOURT Centre,,3.400029,51.412867,,
63,GLAIREUSE Eglise,,3.256505,51.220773,,
64,COURTIL Le Castel,,3.671290,51.649969,,
65,SOY Camping,,3.781652,51.382226,,
66,LAVACHERIE Eglise,,3.406442,51.392802,,
67,SCHMIEDE Knauf,,3.617038,51.718952,,
68,DEIFFELT Carrefour,,3.637502,51.708905,,
69,AVISCOURT Route d'Herbaimont,,3.407275,51.415988,,
70,MARTELANGE Chemin de Perlé,,3.017368,51.539307,,
71,BIEVRE Route d'Houdremont,,3.228643,51.066731,,
72,CORBION Ferme,,3.732104,51.125643,,
73,AUVELAIS Trieu des Cannes,,4.043052,50.833487,,
74,AUVELAIS Trieu des Cannes,,4.042867,50.833505,,
75,LODELINSART Saint-Antoine,,4.013979,50.705548,,
76,PROFONDEVILLE Pont de Lustin,,3.900551,50.980494,,
77,LA LOUVIERE SNCB Sud,,4.062089,50.545332,,
78,GOSSELIES Aérogare,,4.065671,50.723173,,
79,GOSSELIES Aérogare,,4.065671,50.723173,,
80,WOLKRANGE Chapelle N81,,2.742117,51.588374,,
81,THUIN Athénée,,3.864400,50.612450,,
82,VAUX-SOUS-CHEVREMONT place T. Foguenne,,4.282882,51.464695,,
83,LIEGE rue de Vottem,,4.371957,51.425799,,
84,AWANS rue de Xhendremael,,4.395365,51.361866,,
85,AWANS rue de Xhendremael,,4.395251,51.361920,,
86,NANDRIN Bois de la Bouhaye,,4.106489,51.329497,,
87,NANDRIN Bois de la Bouhaye,,4.106402,51.329622,,
88,SENY Petit Seny,,4.045314,51.321257,,
89,SENY Petit Seny,,4.045284,51.321347,,
90,SCRY Eglise,,4.117823,51.302611,,
91,CHEVETOGNE Enhet Eglise,,3.679696,51.130236,,
92,THOREMBAIS-SAINT-TROND Carrefour,,4.330829,50.923678,,
93,THOREMBAIS-SAINT-TROND Carrefour,,4.331030,50.923335,,
94,SCRY Eglise,,4.117619,51.302565,,
95,TOURNAI Bastions Quai 1,,4.284810,50.046256,,
96,CHEVETOGNE Domaine,,3.665901,51.157303,,
97,ANLOY Gare,,3.265863,51.210765,,
98,SAINT-HUBERT Chapelle St-Roch,,3.351454,51.304857,,
99,LIBIN Rolibuchy,,3.268907,51.226526,,
100,LIBIN Rolibuchy,,3.269071,51.226378,,
101,FRAMERIES Maison de l'Emploi,,3.976372,50.359981,,
102,CLAVIER Station,,4.003475,51.269346,,
103,HABERGY Rue de la Scierie,,2.708820,51.562309,,
104,LEUVEN Station,,4.719003,50.878496,,
105,PRAYON Château,,4.247748,51.488829,,
106,HABERGY Rue de la Scierie,,2.709076,51.562243,,
107,DINANT Boulevard Sasserath,,3.735951,51.006742,,
108,SALZINNES Clinique Ste-Elisabeth,,4.052982,50.962727,,
109,FLOREFFE Séminaire,,4.004359,50.909082,,
110,MARCHE Rue du Parc Industriel,,3.677327,51.277199,,
111,BERCHIWE Rue du Chaufour,,2.659192,51.376283,,
112,BOMAL Route de Barvaux n°92,,3.915313,51.395526,,
113,BOMAL Route d'Aywaille,,3.928637,51.399293,,
114,BARVAUX Camping,,3.886429,51.386998,,
115,BOMAL Route d'Aywaille,,3.929239,51.399132,,
116,BOMAL Clairval,,3.920379,51.396993,,
117,THY-LE-CHATEAU Rue Cheniat,,3.777430,50.703093,,
118,SALZINNES Clinique Ste-Elisabeth,,4.052982,50.962727,,
119,SALZINNES Val-Saint-Georges,,4.055060,50.960106,,
120,CHIMAY Gare,,3.404823,50.624614,,
121,MARCHE Rue du Parc Industriel,,3.677567,51.277068,,
122,BERCHIWE Rue du Chaufour,,2.658927,51.376193,,
123,EVREHAILLES Jauviat,,3.833193,51.007222,,
124,BOIS-DE-VILLERS Delhaize,,3.943375,50.943183,,
125,BOIS-DE-VILLERS Delhaize,,3.943148,50.943194,,
126,FRAIRE Route de Fairoul,,3.732780,50.747315,,
127,FLORENNES Bois-joly,,3.707826,50.809309,,
128,FLORENNES Bois-joly,,3.706655,50.809318,,
129,SOMZEE Ste-Barbe,,3.782442,50.734370,,
130,GELBRESSEE Fontaine,,4.128856,51.034237,,
131,JEMEPPE Gare,,4.037763,50.846711,,
132,AISEMONT Grosse haie,,3.982855,50.848263,,
133,AISEMONT Grosse haie,,3.982742,50.848130,,
134,HAMBRAINE Pelaki,,4.238063,51.051953,,
135,HAMBRAINE Pelaki,,4.238584,51.051902,,
136,MARCHE WEX,,3.707217,51.277873,,
137,BARVAUX Camping,,3.885957,51.386960,,
138,DURBUY Hôtel,,3.873762,51.359829,,
139,JEMAPPES Vieille Chasse,,4.049459,50.351956,,
140,NIVELET Centre,,3.001105,51.389917,,
141,NIVELET Centre,,3.001514,51.389670,,
142,THY-LE-CHATEAU Gare,,3.772388,50.698825,,
143,GOUY-LEZ-PIETON Maison du Peuple,,4.103802,50.635485,,
144,GOUY-LEZ-PIETON Maison du Peuple,,4.103614,50.635419,,
145,GOUY-LEZ-PIETON SNCB,,4.109166,50.633729,,
146,GOUY-LEZ-PIETON SNCB,,4.109185,50.633530,,
147,HAINE-ST-PIERRE Cité Bellez,,4.057379,50.561729,,
148,HAINE-ST-PIERRE Football,,4.053908,50.558543,,
149,MORLANWELZ Violettes,,4.052955,50.567222,,
150,PATURAGES Grand Bouillon,,3.965862,50.336243,,
151,JEMAPPES Vieille Chasse,,4.049558,50.351771,,
152,BELGRADE Rue de la Bosna,,4.068160,50.944352,,
153,BELGRADE Rue Durieux 47,,4.065870,50.947070,,
154,BELGRADE Rue du Danube,,4.066966,50.942882,,
155,CUSTINNE Pont de Ver,,3.651346,51.097354,,
156,CUSTINNE Grand'route,,3.656100,51.096171,,
157,CUSTINNE Pont de Ver,,3.650622,51.097385,,
158,CUSTINNE Grand'route,,3.655531,51.096042,,
159,BLANDAIN Ancienne Gare,,4.315359,49.980853,,
160,HAINE-ST-PIERRE Rue du Vélodrome,,4.046950,50.559645,,
161,MORLANWELZ Hayettes,,4.045688,50.564631,,
162,HOUDENG-GOEGNIES Bois de la Hutte,,4.117824,50.538655,,
163,HOUDENG-AIMERIES Jobrette,,4.084292,50.519708,,
164,MAILLEN Rue de Poilvache,,3.922415,51.050616,,
165,CHAUMONT Barrière Luc,,3.652591,50.799716,,
166,CHAUMONT Barrière Luc,,3.652822,50.800410,,
167,MAILLEN Rue de Poilvache,,3.921619,51.050280,,
168,MAILLEN Rue sur l'Hesse,,3.927974,51.056920,,
169,COUVIN Gare SNCB,,3.415943,50.735507,,
170,CHATELINEAU SNCB,,3.972528,50.757359,,
171,CHATELINEAU SNCB,,3.971592,50.756912,,
172,CHATELINEAU SNCB,,3.972666,50.757428,,
173,COUVIN Gare SNCB,,3.416376,50.735604,,
174,COUVIN Gare SNCB,,3.416180,50.735472,,
175,COUVIN Gare SNCB,,3.416624,50.735568,,
176,MORLANWELZ Hayettes,,4.045568,50.565065,,
177,HOUDENG-GOEGNIES Bois de la Hutte,,4.118091,50.538963,,
178,CHAUMONT Barrière Luc,,3.652194,50.801145,,
179,FLAWINNE Jaumaux,,4.073488,50.932362,,
180,MAILLEN Rue de la Ladresse,,3.923007,51.041373,,
181,MAILLEN Centre,,3.920726,51.044531,,
182,MAILLEN Centre,,3.920540,51.044275,,
183,FLAWINNE Jaumaux,,4.073808,50.931792,,
184,CHAUMONT Barrière Luc,,3.652532,50.801458,,
185,MAILLEN Hall Omnisport,,3.918512,51.042190,,
186,MAILLEN Hall Omnisport,,3.918519,51.042425,,
187,MAILLEN Rue du Tailfer,,3.932061,51.043941,,
188,MAILLEN Rue du Tailfer,,3.931830,51.043760,,
189,MAILLEN Rue de la Ladresse,,3.922669,51.040749,,
190,FLAWINNE Superconfex,,4.074986,50.928628,,
191,FLAWINNE Superconfex,,4.074826,50.929254,,
192,MAILLEN Rue sur l'Hesse,,3.928198,51.057573,,
193,NIVELLES Place du Souvenir,,4.265843,50.633686,,
194,DAVE Pont du curé,,3.980771,50.992015,,
195,DAVE Pont du curé,,3.980716,50.991781,,
196,DAVE Pré des Broux,,3.965478,50.989761,,
197,DAVE Cimetière,,3.985104,50.993422,,
198,DAVE Rue de l'école,,3.984288,50.999101,,
199,DAVE Rue de l'école,,3.983945,50.999279,,
200,DAVE Rue des Fonds,,3.980440,51.001075,,
201,DAVE Rue des Sautes,,3.980043,50.999132,,
202,DAVE Rue des Sautes,,3.980259,50.998827,,
203,DAVE Poste,,3.981061,50.994874,,
204,TAILFER CIBE,,3.927121,50.983817,,
205,DAVE Pré des Broux,,3.966291,50.989728,,
206,DAVE Cimetière,,3.985185,50.993935,,
207,AUBLAIN Monument,,3.435471,50.682269,,
208,AUBLAIN Monument,,3.434841,50.682545,,
209,LUSTIN Chapelle,,3.934553,51.007153,,
210,LUSTIN Chapelle,,3.934712,51.006893,,
211,LUSTIN Pré Baudot,,3.931006,51.000929,,
212,LUSTIN Pré Baudot,,3.931320,51.000894,,
213,LUSTIN Institut St-Thomas,,3.907415,50.986357,,
214,LUSTIN Institut St-Thomas,,3.908012,50.986468,,
215,GODINNE Gare,,3.876118,50.978914,,
216,MONT Village,,3.884048,50.997042,,
217,MONT Village,,3.884029,50.996089,,
218,MONT Eglise,,3.883072,51.000454,,
219,PATURAGES Rue du Grand Passage,,3.965934,50.333156,,
220,PATURAGES Rue du Grand Passage,,3.965720,50.333155,,
221,MONT Route de la clinique,,3.890180,50.990747,,
222,DAVE Chemin de l'institut,,4.008664,50.978668,,
223,DAVE Rocher du Néviau,,3.997317,50.983422,,
224,DAVE Rocher du Néviau,,3.997132,50.983431,,
225,DAVE Ancienne gare,,3.987026,50.989271,,
226,DAVE Ancienne gare,,3.986119,50.989482,,
227,DAVE Ancienne gare,,3.985984,50.990049,,
228,DAVE Pont du curé,,3.981242,50.991294,,
229,DAVE Pont du curé,,3.981351,50.991193,,
230,DAVE Rue des Fonds,,3.980097,51.001154,,
231,DAVE Poste,,3.981304,50.995014,,
232,TAILFER Gare,,3.941989,50.987582,,
233,TAILFER Gare,,3.942198,50.987527,,
234,TAILFER Carrières,,3.933276,50.986586,,
235,TAILFER Carrières,,3.933028,50.986418,,
236,TAILFER CIBE,,3.929307,50.984790,,
237,LUSTIN Rocher de Frênes,,3.922364,50.984490,,
238,LUSTIN Rocher de Frênes,,3.922619,50.984109,,
239,LUSTIN Les Ramiers,,3.918588,50.986315,,
240,LUSTIN Les Ramiers,,3.918732,50.986190,,
241,LUSTIN Gare,,3.907559,50.984931,,
242,LUSTIN Gare,,3.907319,50.984794,,
243,LUSTIN Frappe-Cul,,3.900843,50.983234,,
244,LUSTIN Frappe-Cul,,3.900033,50.983049,,
245,LUSTIN Rue Monty,,3.940249,50.992306,,
246,LUSTIN Rue des Fonds,,3.940461,50.997579,,
247,LUSTIN Rue des Fonds,,3.940333,50.997516,,
248,LUSTIN Maison de vacances,,3.936296,51.002855,,
249,DAVE Pierre du Bocq,,3.961437,50.989401,,
250,DAVE Pierre du Bocq,,3.961652,50.989320,,
251,DAVE Les sources,,3.948423,50.988118,,
252,DAVE Les sources,,3.949289,50.988102,,
253,LUSTIN Maison de vacances,,3.936655,51.002542,,
254,PORCHERESSE (Havelange) Rte de Jeneffe,,3.863786,51.217726,,
255,PORCHERESSE (Havelange) Rte de Jeneffe,,3.863942,51.217490,,
256,HAVELANGE Avenue de Criel,,3.948436,51.217130,,
257,VERLEE Route Marechal,,3.907535,51.241499,,
258,VERLEE Route Marechal,,3.907352,51.241996,,
259,BARVAUX-CONDROZ Eglise,,3.845671,51.230142,,
260,BARVAUX-CONDROZ Eglise,,3.845555,51.230249,,
261,MEAN Gros Chêne,,3.885181,51.287251,,
262,MEAN Gros Chêne,,3.886137,51.287033,,
263,HABERGY Eglise,,2.704172,51.551945,,
264,HABERGY Rue de Rachecourt,,2.706410,51.555929,,
265,HABERGY Rue de Rachecourt,,2.706544,51.555763,,
266,HABERGY N870,,2.711135,51.556610,,
267,HABERGY N870,,2.711117,51.556442,,
268,GUELFF Cabine Electrique,,2.691075,51.553293,,
269,GUELFF Cabine Electrique,,2.691264,51.553218,,
270,RACHECOURT Rue du Haut,,2.671915,51.529562,,
271,RACHECOURT Rue du Haut,,2.671918,51.529317,,
272,RACHECOURT Rue de la Strale,,2.668403,51.529054,,
273,RACHECOURT Rue de la Strale,,2.668466,51.528888,,
274,RACHECOURT Rue Basse,,2.663949,51.528667,,
275,RACHECOURT Rue Basse,,2.664244,51.528503,,
276,RACHECOURT Rue de la Cour,,2.658550,51.529677,,
277,RACHECOURT Rue de la Cour,,2.658818,51.529549,,
278,RACHECOURT Rue de la Marne,,2.659781,51.529649,,
279,RACHECOURT Rue de la Marne,,2.659560,51.529533,,
280,RACHECOURT Rue de la Fosse,,2.671836,51.528989,,
281,RACHECOURT Terrain de Football,,2.674112,51.532147,,
282,RACHECOURT Terrain de Football,,2.674497,51.532380,,
283,AUTELBAS Ecole,,2.758593,51.621837,,
284,AUTELBAS Ecole,,2.758495,51.621499,,
285,BARNICH Eglise,,2.760359,51.623961,,
286,BARNICH Eglise,,2.760525,51.623781,,
287,STERPENICH Eglise,,2.757500,51.636377,,
288,STERPENICH Eglise,,2.757217,51.636386,,
289,STERPENICH Passage à Niveau,,2.751910,51.636536,,
290,STERPENICH Passage à Niveau,,2.752079,51.636377,,
291,STEINFORT Douane,,2.774867,51.645106,,
292,STEINFORT Douane,,2.774600,51.645147,,
293,STEINFORT Route de Kleinbettingen,,2.773915,51.652160,,
294,HAGEN Carrefour op Eeschelter,,2.766748,51.657170,,
295,HAGEN Carrefour an der Laach,,2.762745,51.658833,,
296,HAGEN Carrefour Rue Principale,,2.759179,51.661617,,
297,HAGEN Eglise,,2.758443,51.662425,,
298,AUTELBAS Rue d'Autelhaut n°22,,2.757758,51.619446,,
299,AUTELBAS Rue d'Autelhaut n°22,,2.757477,51.619221,,
300,STERPENICH IKEA,,2.740212,51.637147,,
301,ROBELMONT Belle Vue,,2.659688,51.397965,,
302,ROBELMONT Belle Vue,,2.659930,51.397882,,
303,ROBELMONT Rue Pré Cathelenne,,2.670167,51.389242,,
304,ROBELMONT Rue Pré Cathelenne,,2.670410,51.389264,,
305,ROBELMONT Grand-Place,,2.674577,51.388727,,
306,ROBELMONT Rue de la Comète,,2.676046,51.388680,,
307,CROIX-ROUGE Route de Ethe,,2.722297,51.416556,,
308,CROIX-ROUGE Route de Ethe,,2.722080,51.416485,,
309,HUOMBOIS Huombois,,2.737505,51.422676,,
310,HUOMBOIS Huombois,,2.736845,51.422622,,
311,CROIX ROUGE Passage à Niveau,,2.729771,51.419189,,
312,CROIX ROUGE Passage à Niveau,,2.729146,51.419144,,
313,LAHAGE Rue Saint-Hubert n°135,,2.763656,51.381993,,
314,LAHAGE Rue Saint-Hubert n°135,,2.763628,51.381834,,
315,LAHAGE Rue Orban,,2.758060,51.383041,,
316,LAHAGE Monument,,2.756790,51.383608,,
317,LAHAGE Monument,,2.756607,51.383505,,
318,LAHAGE Rue du Meunier,,2.751488,51.385694,,
319,LAHAGE Rue du Meunier,,2.751575,51.385537,,
320,MEIX-DEVANT-VIRTON Pargé,,2.692639,51.364552,,
321,MEIX-DEVANT-VIRTON Pargé,,2.692377,51.365294,,
322,MEIX-DEVANT-VIRTON Place,,2.689324,51.370474,,
323,MEIX-DEVANT-VIRTON Place,,2.689080,51.370461,,
324,MEIX-DEVANT-VIRTON Hôtel Fin Bec,,2.681231,51.371672,,
325,MEIX-DEVANT-VIRTON Hôtel Fin Bec,,2.681783,51.371284,,
326,MEIX-DEVANT-VIRTON Rue de Launoy,,2.692536,51.372200,,
327,MEIX-DEVANT-VIRTON Rue de Launoy,,2.692426,51.372109,,
328,FOUCHES Route d'Etalle n°3,,2.818871,51.532706,,
329,FOUCHES Route d'Etalle n°3,,2.818564,51.532828,,
330,FOUCHES Route d'Etalle n°35,,2.818763,51.529477,,
331,FOUCHES Route d'Etalle n°35,,2.818465,51.528907,,
332,FOUCHES 4 Chemins,,2.814125,51.522499,,
333,FOUCHES 4 Chemins,,2.813816,51.522554,,
334,FOUCHES Chapelle,,2.817385,51.521136,,
335,FOUCHES Chapelle,,2.817126,51.521105,,
336,FOUCHES Ecole,,2.821878,51.521194,,
337,FOUCHES Ecole,,2.821806,51.520906,,
338,FOUCHES Rue des Marais,,2.824671,51.522585,,
339,FOUCHES Rue des Marais,,2.824787,51.522377,,
340,FOUCHES Route de Hachy n°1,,2.826396,51.522149,,
341,FOUCHES Route de Hachy n°1,,2.826632,51.522092,,
342,FOUCHES Route de Hachy n°31,,2.826232,51.518785,,
343,FOUCHES Route de Hachy n°31,,2.826135,51.518427,,
344,FOUCHES Rue de la Vallée,,2.831664,51.515046,,
345,FOUCHES Rue de la Vallée,,2.831552,51.514838,,
346,SAMPONT Goldberg,,2.831439,51.509374,,
347,SAMPONT Goldberg,,2.831498,51.509345,,
348,SAMPONT Route d'Etalle,,2.805424,51.515454,,
349,SAMPONT Route d'Etalle,,2.805292,51.515674,,
350,SAMPONT Chaussée Romaine,,2.818024,51.515636,,
351,SAMPONT Chaussée Romaine,,2.817771,51.515621,,
352,SAMPONT Ecole,,2.814240,51.513499,,
353,SAMPONT Ecole,,2.813921,51.513435,,
354,VILLERS-TORTRU Grand-Route,,2.796782,51.506195,,
355,VILLERS-TORTRU Grand-Route,,2.796594,51.506193,,
356,VANCE Carrefour,,2.791594,51.495927,,
357,VANCE Carrefour,,2.791364,51.496064,,
358,VANCE Eglise,,2.793747,51.492878,,
359,VANCE Eglise,,2.793454,51.493045,,
360,VANCE Rue des Gamelles,,2.793236,51.490570,,
361,VANCE Rue du Gibet,,2.798390,51.488894,,
362,VANCE Rue de la Semois,,2.792990,51.489874,,
363,VANCE Rue de la Semois,,2.792645,51.489726,,
364,VANCE Rue Chavez,,2.786287,51.495728,,
365,VANCE Rue Chavez,,2.786402,51.495891,,
366,CHANTEMELLE Cimetière,,2.768403,51.485193,,
367,CHANTEMELLE Cimetière,,2.768351,51.485608,,
368,CHANTEMELLE Eglise,,2.767266,51.482121,,
369,CHANTEMELLE Eglise,,2.767058,51.482193,,
370,CHANTEMELLE Place de l'Etang,,2.764589,51.482241,,
371,CHANTEMELLE Place de l'Etang,,2.764350,51.482246,,
372,VANCE Rue de Habay n°23,,2.799448,51.491245,,
373,SIVRY Lavoir,,2.793281,51.464486,,
374,SIVRY Lavoir,,2.793161,51.464365,,
375,SIVRY Route d'Etalle,,2.796150,51.462941,,
376,SIVRY Route d'Etalle,,2.795784,51.462970,,
377,ETALLE Gendarmerie,,2.797336,51.457926,,
378,ETALLE Gendarmerie,,2.797093,51.457881,,
379,ETALLE Lenclos,,2.799736,51.454479,,
380,ETALLE Lenclos,,2.799588,51.454318,,
381,ETALLE Rue du Paquis 75,,2.800225,51.452227,,
382,ETALLE Eglise,,2.800045,51.449856,,
383,ETALLE Eglise,,2.799406,51.449081,,
384,ETALLE Rue du Moulin n°42,,2.799653,51.448255,,
385,ETALLE Rue du Moulin n°42,,2.799286,51.448363,,
386,ETALLE Ecole Communale,,2.796967,51.450823,,
387,ETALLE Crédit Agricole,,2.798823,51.445867,,
388,ETALLE Crédit Agricole,,2.798621,51.445882,,
389,ETALLE Rue de Virton,,2.793330,51.448348,,
390,ETALLE Rue de Virton,,2.793384,51.448169,,
391,SAINTE-MARIE N83,,2.801832,51.422795,,
392,SAINTE-MARIE N83,,2.801235,51.423886,,
393,ETALLE E.P.C.F.,,2.790616,51.453118,,
394,ETALLE Ferme du Moulin,,2.797427,51.440491,,
395,ETALLE Ferme du Moulin,,2.797235,51.440791,,
396,BUZENOL Montauban,,2.743432,51.439838,,
397,BUZENOL Montauban,,2.743806,51.439860,,
398,BUZENOL Eglise,,2.755952,51.445905,,
399,BUZENOL Eglise,,2.755852,51.445748,,
400,BUZENOL Rue des Hauts Jardins,,2.759218,51.445871,,
401,BUZENOL Rue des Hauts Jardins,,2.758618,51.445765,,
402,BUZENOL Grand-Route,,2.769250,51.440161,,
403,BUZENOL Grand-Route,,2.769572,51.439880,,
404,BUZENOL Grand-Route,,2.769091,51.439658,,
405,BUZENOL Grand-Route,,2.768708,51.439899,,
406,FRATIN Rue des Alouettes,,2.776143,51.434202,,
407,FRATIN Place,,2.777843,51.431444,,
408,FRATIN Place,,2.777539,51.431501,,
409,SAINTE-MARIE Zoning,,2.786642,51.429704,,
410,SAINTE-MARIE Zoning,,2.786787,51.429542,,
411,SAINTE-MARIE Lavoir,,2.793114,51.427863,,
412,SAINTE-MARIE Lavoir,,2.792815,51.427770,,
413,SAINTE-MARIE Rue de la Rigole,,2.793369,51.425952,,
414,SAINTE-MARIE Rue de la Rigole,,2.793072,51.425852,,
415,SAINTE-MARIE Terrain de Football,,2.787737,51.423741,,
416,SAINTE-MARIE Terrain de Football,,2.787766,51.423586,,
417,SAINTE-MARIE Rue de la Balastière,,2.786425,51.423106,,
418,SAINTE-MARIE Rue des Rappes,,2.787494,51.422443,,
419,ETALLE Rue Petit Routeux,,2.806209,51.450405,,
420,ETALLE Rue Petit Routeux,,2.806580,51.450354,,
421,SAINTE-MARIE Ecole,,2.796469,51.425313,,
422,SAINTE-MARIE Ecole,,2.796498,51.425167,,
423,SAINTE-MARIE Grand-Rue,,2.801247,51.423506,,
424,SAINTE-MARIE Grand-Rue,,2.801074,51.423390,,
425,SAINTE-MARIE Rue de la Gare,,2.801115,51.427837,,
426,SAINTE-MARIE Rue de la Gare,,2.800943,51.427826,,
427,SAINTE-MARIE Rue des Tilleuls,,2.803506,51.426439,,
428,SAINTE-MARIE Rue des Tilleuls,,2.803592,51.426297,,
429,SAINTE-MARIE Rue de la Gare n°23,,2.802134,51.419365,,
430,SAINTE-MARIE Rue de la Gare n°23,,2.801916,51.419443,,
431,SAINTE-MARIE Gare,,2.802047,51.415561,,
432,SAINTE-MARIE Gare,,2.801922,51.415433,,
433,SAINTE-MARIE Chaussée Romaine,,2.793923,51.428309,,
434,SAINTE-MARIE Chaussée Romaine,,2.794086,51.427999,,
435,ETALLE Rue du Paquis 47a,,2.798620,51.455276,,
436,ETALLE La Croix Chinin,,2.787808,51.447298,,
437,ETALLE La Croix Chinin,,2.787032,51.447410,,
438,TINTIGNY Route de Poncelle,,2.804886,51.411786,,
439,TINTIGNY Route de Poncelle,,2.804305,51.412112,,
440,TINTIGNY Rue de la Station n°49,,2.807406,51.407945,,
441,TINTIGNY Rue de la Station n°49,,2.807221,51.407907,,
442,TINTIGNY Route de Han,,2.811225,51.400930,,
443,TINTIGNY Route de Han,,2.811076,51.400781,,
444,TINTIGNY Grand-Rue n°39,,2.814558,51.396523,,
445,TINTIGNY Grand-Rue n°39,,2.814229,51.396474,,
446,TINTIGNY Maison Communale,,2.815531,51.392772,,
447,TINTIGNY Maison Communale,,2.815302,51.393180,,
448,TINTIGNY Carrefour,,2.814956,51.392789,,
449,TINTIGNY Carrefour,,2.816134,51.392499,,
450,TINTIGNY Grand'Rue n°122,,2.817046,51.388576,,
451,TINTIGNY Grand'Rue n°122,,2.816796,51.388499,,
452,TINTIGNY Ecole,,2.809110,51.392712,,
453,TINTIGNY Ecole,,2.808936,51.392509,,
454,ANSART Grand-Route,,2.827401,51.398812,,
455,ANSART Grand-Route,,2.827824,51.398791,,
456,ANSART Rue du Chapon,,2.832240,51.397610,,
457,ANSART Rue du Centenaire,,2.836044,51.394996,,
458,CHAPOIS Place du Forgniat,,3.738096,51.144227,,
459,JODOIGNE Athénée Royal,,4.463102,50.984968,,
460,JODOIGNE Athénée Royal,,4.461478,50.986564,,
461,WATERLOO Rue Saint-Germain,,4.442772,50.667517,,
462,WATERLOO Av. Baron Seutin,,4.436969,50.664985,,
463,WARDIN Rue de Bastogne 22,,3.301220,51.565423,,
464,WAVRE Rijs,,4.473519,50.803038,,
465,WARDIN Rue de Bastogne 22,,3.300896,51.565274,,
466,ERPENT Collège N.-D. de la Paix,,4.020748,50.997244,,
467,SAINT-SERVAIS Rue de Bricgniot,,4.081988,50.955113,,
468,COUVIN Home,,3.402042,50.739431,,
469,COUVIN Home,,3.402256,50.739472,,
470,EZEMAAL Station,,4.547030,51.056761,,
471,AUDERGHEM Saint-Julien,,4.620676,50.685227,,
472,AUDERGHEM Saint-Julien,,4.619461,50.685898,,
473,TONGRINNE Le Docq,,4.152495,50.822895,,
474,LIEGE Place Saint-Nicolas (terminus),,4.341583,51.407357,,
475,MARLOIE Route du Gerny,,3.660421,51.265167,,
476,MARLOIE Route du Gerny,,3.660161,51.265304,,
477,SAINT-MARC Chemin de Vedrin,,4.106072,50.971785,,
478,WASSEIGES Route de Namur,,4.305828,51.066387,,
479,GENAPPE Rue de Villers,,4.284448,50.712893,,
480,NIL-ST-VINCENT Au Pois d'Or,,4.331354,50.847870,,
481,NIL-ST-VINCENT Au Pois d'Or,,4.331582,50.847780,,
482,COURT-SAINT-ETIENNE N25,,4.337660,50.800604,,
483,COURT-SAINT-ETIENNE N25,,4.338014,50.800910,,
484,HUMAIN Rue de Thys,,3.647187,51.225370,,
485,HUMAIN Rue de Thys,,3.647627,51.225606,,
486,AYE Carrefour Rue Chantemerle,,3.689061,51.255802,,
487,RAMEGNIES-CHIN Saint-André,,4.345689,50.009277,,
488,WAHA Eglise,,3.659132,51.283124,,
489,WAHA Eglise,,3.658790,51.283131,,
490,MARLOIE FOREM,,3.650648,51.267304,,
491,MAFFE Route de Méan,,3.887605,51.263751,,
492,MAFFE Route de Méan,,3.887281,51.263740,,
493,MAFFE Ecole,,3.886278,51.264278,,
494,MAFFE Ecole,,3.885978,51.264217,,
495,MEAN Eglise,,3.898685,51.277148,,
496,MEAN Eglise,,3.899128,51.277213,,
497,BORLON Centre,,3.923580,51.323561,,
498,BORLON Rue de l'Eglise,,3.929231,51.320592,,
499,BORLON Rue de l'Eglise,,3.928901,51.320579,,
500,SINSIN Messager,,3.749888,51.220426,,
501,SINSIN M.E.T.,,3.758572,51.213373,,
502,SINSIN Rue de l'Observatoire,,3.752360,51.223240,,
503,SINSIN Rue de l'Observatoire,,3.752594,51.223187,,
504,SINSIN Cimetière,,3.759213,51.227931,,
505,SINSIN Cimetière,,3.759518,51.227948,,
506,SINSIN Eglise,,3.760413,51.230338,,
507,SINSIN Eglise,,3.760651,51.230333,,
508,SINSIN Rue de Heure,,3.761790,51.233464,,
509,SINSIN Rue de Heure,,3.762075,51.233441,,
510,SINSIN N4,,3.748513,51.220074,,
511,SINSIN Chapelle,,3.756270,51.225283,,
512,SINSIN Chapelle,,3.756404,51.225179,,
513,BENDE Voie Romaine,,3.987070,51.327242,,
514,JENNERET Eglise,,3.981714,51.348643,,
515,JENNERET Eglise,,3.981138,51.348174,,
516,ONEUX Centre,,3.951236,51.337997,,
517,SUGNY Rue des Crutins,,3.019673,50.999346,,
518,SUGNY Rue des Crutins,,3.020101,50.999141,,
519,SUGNY Rue de Bouillon,,3.024638,50.998629,,
520,SUGNY Rue de Bouillon,,3.024448,50.998430,,
521,SUGNY Ecole Communale,,3.029333,50.997182,,
522,SUGNY Ecole Communale,,3.029039,50.997178,,
523,SUGNY Rue de Bagimont,,3.031460,50.995188,,
524,SUGNY Rue de Bagimont,,3.031094,50.995092,,
525,BAN D'ALLE Carrefour,,2.982406,51.037726,,
526,BAN D'ALLE Carrefour,,2.982050,51.037721,,
527,BAGIMONT Eglise,,3.044831,50.980664,,
528,BAGIMONT Eglise,,3.045007,50.980774,,
529,SUGNY Centre FEDASIL,,3.056982,50.987342,,
530,SUGNY Centre FEDASIL,,3.056739,50.987229,,
531,LA BONNE IDEE Carrefour,,3.043440,50.991203,,
532,LA BONNE IDEE Carrefour,,3.043260,50.991034,,
533,PUSSEMANGE Anc. Maison Communale,,3.024092,50.977728,,
534,PUSSEMANGE Anc. Maison Communale,,3.024286,50.977596,,
535,BOHAN Rue de Membre n°92,,3.110527,50.989410,,
536,BOHAN Rue de Membre n°92,,3.110668,50.989262,,
537,BOHAN Eglise,,3.108691,50.987603,,
538,BOHAN Ecole Communale,,3.109893,50.988072,,
539,MONCEAU EN ARDENNE Rue de Oizy,,3.170632,51.053282,,
540,MONCEAU EN ARDENNE Rue de Oizy,,3.170879,51.053276,,
541,MONCEAU EN ARDENNE Eglise,,3.171348,51.052624,,
542,MONCEAU EN ARDENNE Eglise,,3.170908,51.052539,,
543,MONCEAU EN ARDENNE Route de Bellefontaine,,3.173487,51.052098,,
544,MONCEAU EN ARDENNE Route de Bellefontaine,,3.173404,51.051998,,
545,BELLEFONTAINE Eglise (Bièvre),,3.192043,51.044723,,
546,PETIT-FAYS Eglise,,3.167497,51.041252,,
547,PETIT-FAYS Eglise,,3.166944,51.040811,,
548,PETIT-FAYS Rue de Bellefontaine,,3.168352,51.039855,,
549,PETIT-FAYS Rue de Bellefontaine,,3.168323,51.039687,,
550,PETIT-FAYS Ecole,,3.167799,51.041962,,
551,GEDINNE Village,,3.287165,51.020597,,
552,GEDINNE Village,,3.286357,51.020191,,
553,GEDINNE Gare SNCB,,3.297110,51.048206,,
554,GEDINNE Lycée,,3.288881,51.021661,,
555,LOUETTE SAINT PIERRE Rue de France,,3.263756,51.016550,,
556,LOUETTE SAINT PIERRE Rue de France,,3.264196,51.016447,,
557,LOUETTE SAINT PIERRE Eglise,,3.260484,51.015662,,
558,LOUETTE SAINT PIERRE Eglise,,3.259595,51.015927,,
559,LOUETTE SAINT PIERRE Rue de la Semois n°26,,3.256943,51.017781,,
560,LOUETTE SAINT PIERRE Rue de la Semois n°26,,3.256845,51.017690,,
561,LOUETTE SAINT DENIS Carrefour,,3.256031,51.031740,,
562,LOUETTE SAINT DENIS Carrefour,,3.255784,51.031776,,
563,LOUETTE SAINT DENIS Eglise,,3.256897,51.034744,,
564,LOUETTE SAINT DENIS Eglise,,3.256740,51.034734,,
565,LOUETTE SAINT DENIS Rue des Bruyères,,3.257595,51.036723,,
566,BIEVRE Ecole Communale,,3.228187,51.072021,,
567,BIEVRE Ecole Communale,,3.229090,51.072426,,
568,BIEVRE Les Misères,,3.208244,51.082165,,
569,BIEVRE Les Misères,,3.207630,51.082168,,
570,BIEVRE Big Mat,,3.220191,51.078048,,
571,BIEVRE Big Mat,,3.216924,51.079149,,
572,GRAIDE Scierie,,3.209381,51.095413,,
573,GRAIDE Scierie,,3.209072,51.095398,,
574,GRAIDE Rue du Progrès n°54,,3.223510,51.093471,,
575,GRAIDE Rue du Progrès n°54,,3.223296,51.093083,,
576,GRAIDE Rue de Porcheresse,,3.246434,51.106726,,
577,GRAIDE Rue de Porcheresse,,3.246509,51.106533,,
578,HAVRENNE Rue d'Humain,,3.643976,51.212410,,
579,ROCHEFORT Athénée,,3.565538,51.205033,,
580,ROCHEFORT Athénée,,3.566480,51.204872,,
581,ROCHEFORT Route de Hamerenne,,3.551537,51.204818,,
582,ROCHEFORT Route de Hamerenne,,3.552015,51.204596,,
583,ROCHEFORT Maison Blanche,,3.546285,51.205659,,
584,ROCHEFORT Maison Blanche,,3.546888,51.205301,,
585,ROCHEFORT Cimetière,,3.591757,51.198407,,
586,OIZY Rue de la Chapelle,,3.153106,51.068521,,
587,OIZY Rue de la Chapelle,,3.153064,51.068275,,
588,OIZY Ecole,,3.150791,51.066827,,
589,OIZY Ecole,,3.150470,51.066732,,
590,SIX PLANES Eglise,,3.133028,51.043158,,
591,SIX PLANES Rue du Village,,3.130353,51.044550,,
592,SIX PLANES Rue du Village,,3.130299,51.044460,,
593,SIX PLANES Maltournée,,3.123657,51.045909,,
594,SIX PLANES Maltournée,,3.124077,51.046034,,
595,SIX PLANES Rue de Gros Fays,,3.123315,51.045897,,
596,SIX PLANES Rue de Gros Fays,,3.123218,51.045815,,
597,GROS FAYS Calvaire,,3.120356,51.049902,,
598,GROS FAYS Calvaire,,3.120215,51.049865,,
599,GROS FAYS Lavoir,,3.116735,51.050898,,
600,GROS FAYS Lavoir,,3.116710,51.050789,,
601,CORNIMONT Calvaire,,3.107102,51.060118,,
602,CORNIMONT Calvaire,,3.106961,51.060044,,
603,WAVREILLE Ferme,,3.522298,51.220945,,
604,WAVREILLE Ferme,,3.522052,51.220839,,
605,WAVREILLE Carrefour,,3.518875,51.225828,,
606,WAVREILLE Carrefour,,3.517478,51.225681,,
607,WAVREILLE Carrefour,,3.518019,51.226409,,
608,WAVREILLE Carrefour,,3.516480,51.226483,,
609,WAVREILLE Eglise,,3.514197,51.222985,,
610,WAVREILLE Eglise,,3.514622,51.223188,,
611,WAVREILLE Route de Tellin,,3.507615,51.221038,,
612,WAVREILLE Route de Tellin,,3.507516,51.221210,,
613,WAVREILLE Route de Rochefort n°87,,3.524368,51.217853,,
614,WAVREILLE Route de Rochefort n°87,,3.524131,51.217755,,
615,CHAIRIERE La Haizette,,3.117829,51.025952,,
616,CHAIRIERE La Haizette,,3.117965,51.025816,,
617,CHAIRIERE La Haizette,,3.117244,51.025751,,
618,CHAIRIERE La Haizette,,3.116975,51.025880,,
619,CHAIRIERE Rue Grande,,3.107743,51.029935,,
620,CHAIRIERE Rue Grande,,3.107808,51.029787,,
621,CHAIRIERE Centre,,3.104332,51.030591,,
622,CHAIRIERE Centre,,3.104452,51.030386,,
623,CHAIRIERE Route de Alle,,3.099370,51.031662,,
624,CHAIRIERE Route de Alle,,3.099039,51.031403,,
625,CHAIRIERE Ecole,,3.103384,51.030851,,
626,ALLE Ecole Primaire,,3.070661,51.042255,,
627,ALLE Ancien Dépôt TEC,,3.063736,51.041692,,
628,ALLE Ancien Dépôt TEC,,3.063457,51.041549,,
629,ALLE Hôme,,3.070834,51.041516,,
630,ALLE Hôme,,3.071190,51.041703,,
631,ALLE Route de Liboichamps n°15,,3.081222,51.041513,,
632,ALLE Route de Liboichamps n°15,,3.080717,51.041672,,
633,ALLE Ecole Gardienne,,3.070054,51.043387,,
634,MOUZAIVE Eglise,,3.090282,51.039394,,
635,MOUZAIVE Passerelle,,3.091528,51.040726,,
636,MOUZAIVE Passerelle,,3.091588,51.040478,,
637,ALLE Chemin de la Tachette,,3.060081,51.045445,,
638,ALLE Chemin de la Tachette,,3.059743,51.045127,,
639,ORCHIMONT Rue du Château,,3.151269,51.016182,,
640,ORCHIMONT Rue du Château,,3.151027,51.016054,,
641,ORCHIMONT Salle des Fêtes,,3.154742,51.015266,,
642,ORCHIMONT Salle des Fêtes,,3.155119,51.015374,,
643,HERISSON Route de Hérissart,,3.152963,50.989514,,
644,NAFRAITURE Place,,3.180865,51.008624,,
645,NAFRAITURE Place,,3.180947,51.008759,,
646,NAFRAITURE Ecole Communale,,3.182613,51.007266,,
647,NAFRAITURE Ecole Communale,,3.182306,51.007242,,
648,NAFRAITURE La Nowe,,3.187776,51.009170,,
649,NAFRAITURE La Nowe,,3.187994,51.008978,,
650,NAFRAITURE La Chiquetterie,,3.204357,51.010177,,
651,NAFRAITURE La Chiquetterie,,3.204013,51.010104,,
652,HOUDREMONT Rue de Louette St Denis,,3.239984,51.026349,,
653,HOUDREMONT Rue de Louette St Denis,,3.239815,51.026500,,
654,HOUDREMONT Eglise,,3.230544,51.026284,,
655,HOUDREMONT Eglise,,3.230387,51.026113,,
656,HOUDREMONT Le Bati,,3.226404,51.026715,,
657,HOUDREMONT Le Bati,,3.226342,51.026550,,
658,HOUDREMONT Salle des Fêtes,,3.230200,51.026776,,
659,HOUDREMONT Salle des Fêtes,,3.230425,51.026646,,
660,MEMBRE Rue de Vresse n°99,,3.114532,51.001059,,
661,MEMBRE Rue de Vresse n°99,,3.114583,51.000940,,
662,MEMBRE Carrefour,,3.110051,50.998494,,
663,MEMBRE Carrefour,,3.110320,50.998500,,
664,MEMBRE Pont,,3.105339,50.997955,,
665,MEMBRE Pont,,3.105113,50.997928,,
666,MEMBRE Ecole,,3.111736,50.997469,,
667,BAILLAMONT Eglise,,3.162822,51.079076,,
668,BAILLAMONT Eglise,,3.163793,51.079077,,
669,BAILLAMONT Rue de Sedan,,3.167471,51.082027,,
670,BAILLAMONT Rue de Sedan,,3.167841,51.082067,,
671,BAILLAMONT Ramelot,,3.178453,51.089061,,
672,BAILLAMONT Ramelot,,3.178906,51.089021,,
673,NAOME Monument,,3.196554,51.119852,,
674,NAOME Monument,,3.196715,51.119665,,
675,MON IDEE Mon Idée,,3.167430,51.099755,,
676,MON IDEE Mon Idée,,3.167201,51.099762,,
677,LAFORET Ecole Communale,,3.103457,51.015625,,
678,LAFORET Eglise,,3.104981,51.016052,,
679,LAFORET Eglise,,3.104976,51.015863,,
680,LAFORET Rue Sainte-Agathe n°2,,3.109613,51.017126,,
681,LAFORET Rue Sainte-Agathe n°2,,3.109682,51.016998,,
682,LAFORET Rue Sainte-Agathe n°71,,3.114378,51.017300,,
683,LAFORET Rue Sainte-Agathe n°71,,3.114782,51.017505,,
684,VRESSE Eglise,,3.120877,51.018199,,
685,VRESSE Eglise,,3.121042,51.018054,,
686,VRESSE La Chaumière,,3.121730,51.019727,,
687,VRESSE La Chaumière,,3.121990,51.019733,,
688,VRESSE Gendarmerie,,3.120850,51.016526,,
689,VRESSE Gendarmerie,,3.120640,51.016236,,
690,VRESSE Le Terne,,3.139539,51.009366,,
691,VRESSE Le Terne,,3.139656,51.009230,,
692,CONRAD Rue de Terne,,3.149575,51.001876,,
693,CONRAD Rue de Terne,,3.149404,51.001725,,
694,JEMELLE Rue du Centenaire,,3.582361,51.227439,,
695,JEMELLE Place Communale,,3.580769,51.232687,,
696,ON Pont de la Wamme,,3.597964,51.247440,,
697,ON Pont de la Wamme,,3.597917,51.247721,,
698,ON Ferme Jadot,,3.602015,51.253165,,
699,ON Ferme Jadot,,3.601480,51.253155,,
700,ON Chemin de Baty,,3.591735,51.243042,,
701,ON Chemin de Baty,,3.591718,51.243276,,
702,ON Cité des Italiens,,3.587489,51.239524,,
703,ON Cité des Italiens,,3.586902,51.239253,,
704,ON Chemin de Wée,,3.582658,51.237224,,
705,ON Chemin de Wée,,3.582666,51.237391,,
706,ON Belgacom,,3.579870,51.235883,,
707,ON Belgacom,,3.579708,51.236149,,
708,ON Rue de l'Yser,,3.582765,51.238327,,
709,ON Rue de l'Yser,,3.582646,51.237733,,
710,ON Place,,3.595297,51.248513,,
711,ON Place,,3.594910,51.248193,,
712,NETTINE Grand'Route,,3.777846,51.228439,,
713,NETTINE Grand'Route,,3.777645,51.228510,,
714,NETTINE Pont,,3.779735,51.228919,,
715,NETTINE Pont,,3.779967,51.229037,,
716,NETTINE Ecole,,3.784466,51.229119,,
717,NETTINE Eglise,,3.785829,51.231541,,
718,HEURE Ecole,,3.790829,51.252823,,
719,HEURE Ecole,,3.790587,51.252762,,
720,HEURE Grand'Route,,3.794122,51.252995,,
721,HEURE Grand'Route,,3.793941,51.252536,,
722,MORESSEE-Moressee,,3.811380,51.261242,,
723,RABOZEE La Main Verte,,3.764307,51.285763,,
724,RABOZEE La Main Verte,,3.764448,51.285910,,
725,RABOZEE Carrefour,,3.767253,51.281467,,
726,RABOZEE Carrefour,,3.767355,51.281653,,
727,BAILLONVILLE Maison Communale,,3.783112,51.281255,,
728,BAILLONVILLE Maison Communale,,3.782552,51.281241,,
729,BAILLONVILLE Route de France,,3.784770,51.276985,,
730,BAILLONVILLE Route de France,,3.784702,51.276670,,
731,BAILLONVILLE Dom du Bochetay,,3.792746,51.267058,,
732,BAILLONVILLE Dom du Bochetay,,3.792473,51.267099,,
733,BAILLONVILLE Carrefour,,3.785245,51.287462,,
734,BAILLONVILLE Carrefour,,3.784955,51.287457,,
735,WAILLET Rue de la Briqueterie,,3.733312,51.260760,,
736,WAILLET Centre,,3.735993,51.258988,,
737,WAILLET Centre,,3.735846,51.258856,,
738,WAILLET Clos-St-Martin,,3.711238,51.255612,,
739,WAILLET Clos-St-Martin,,3.714877,51.256552,,
740,HOGNE Pont,,3.721493,51.243927,,
741,HOGNE Pont,,3.721672,51.244466,,
742,HOGNE Rue de Waillet,,3.732148,51.252999,,
743,HOGNE Rue de Waillet,,3.732064,51.253238,,
744,HOGNE Domaine Chemin des Epicéas,,3.721828,51.238727,,
745,HOGNE Domaine Chemin du Parc,,3.726043,51.236883,,
746,HOGNE Domaine Chemin des Sapins,,3.724909,51.234402,,
747,HARZEE Eglise,,4.026343,51.488880,,
748,HARZEE Eglise,,4.026514,51.489007,,
749,WERBOMONT Route de Bastogne,,3.930574,51.498481,,
750,WERBOMONT Route de Bastogne,,3.930588,51.498678,,
751,WERBOMONT Route de Hamoir,,3.932121,51.497987,,
752,WERBOMONT Route de Hamoir,,3.932496,51.497805,,
753,BOSSON Route de Ernonheid,,3.963726,51.494688,,
754,BOSSON Route de Ernonheid,,3.963743,51.494463,,
755,ERNONHEID Village,,3.965227,51.489265,,
756,ERNONHEID Village,,3.965543,51.489242,,
757,WERBOMONT Contrôle Technique,,3.924318,51.497167,,
758,WERBOMONT Contrôle Technique,,3.924480,51.497407,,
759,GRAND HALLEUX Roche de Hourt,,3.817353,51.646651,,
760,GRAND HALLEUX Roche de Hourt,,3.817283,51.646453,,
761,GRAND HALLEUX Chemin de Hourt 33,,3.826149,51.643834,,
762,GRAND HALLEUX Chemin de Hourt 33,,3.826642,51.644114,,
763,GRAND HALLEUX Hourt,,3.832414,51.644671,,
764,GRAND HALLEUX Hourt,,3.832629,51.644806,,
765,GRAND HALLEUX Chemin de Mont le Soie,,3.842432,51.645263,,
766,GRAND HALLEUX Chemin de Mont le Soie,,3.842458,51.645054,,
767,GRAND HALLEUX Eglise,,3.846130,51.643949,,
768,GRAND HALLEUX Eglise,,3.846027,51.643722,,
769,ENNAL Musée,,3.851819,51.655288,,
770,GRAND-HALLEUX Ecole,,3.847699,51.645655,,
771,GRAND-HALLEUX Ecole,,3.847412,51.645564,,
772,PETIT-HALLEUX Vieux Chêne,,3.843314,51.640143,,
773,PETIT-HALLEUX Vieux Chêne,,3.843253,51.639991,,
774,PETIT-HALLEUX Rue de Farnières,,3.835020,51.641522,,
775,PETIT-HALLEUX Rue de Farnières,,3.835236,51.641646,,
776,LIERNEUX La Falize,,3.786584,51.580909,,
777,LIERNEUX La Falize,,3.786383,51.581034,,
778,LIERNEUX Rue de La Vaux,,3.783425,51.579914,,
779,LIERNEUX Lavaux,,3.783638,51.579790,,
780,LIERNEUX La Vaux,,3.786587,51.578518,,
781,LIERNEUX La Vaux,,3.786920,51.578475,,
782,LIERNEUX Ecole Primaire de l'Etat,,3.782821,51.576787,,
783,LIERNEUX Ecole,,3.778399,51.575216,,
784,LIERNEUX Ecole,,3.778440,51.574919,,
785,LIERNEUX Maison Communale,,3.777520,51.572452,,
786,LIERNEUX Bibliothèque,,3.775812,51.570647,,
787,LIERNEUX Carrefour,,3.778710,51.569564,,
788,LIERNEUX Rue Doyard,,3.780440,51.564186,,
789,LIERNEUX Colinie Principale,,3.779361,51.567375,,
790,LIERNEUX Rue Neuve,,3.779549,51.569707,,
791,LIERNEUX Rue Neuve,,3.779041,51.569593,,
792,VERLEUMONT Chapelle,,3.759796,51.582227,,
793,LIERNEUX Rue des Marcadènes,,3.771214,51.572700,,
794,LIERNEUX Rue des Marcadènes,,3.771258,51.572592,,
795,LIERNEUX Gernechamps,,3.788685,51.591486,,
796,LIERNEUX La Falize,,3.786495,51.581178,,
797,MENIL Pelhémont,,3.790122,51.608580,,
798,MENIL Pelhémont,,3.790438,51.608563,,
799,MENIL Carrefour,,3.790537,51.598417,,
800,MENIL Carrefour,,3.790568,51.598217,,
801,ARBREFONTAINE Chapelle,,3.799972,51.597465,,
802,ARBREFONTAINE Maison Gilles,,3.804028,51.597313,,
803,ARBREFONTAINE Les Marottes,,3.808300,51.598017,,
804,MENIL Le Chenay,,3.792051,51.603170,,
805,MENIL Le Chenay,,3.792165,51.603287,,
806,HIERLOT,,3.820553,51.569072,,
807,HIERLOT,,3.820451,51.569170,,
808,ODRIMONT Centre,,3.815377,51.579456,,
809,ODRIMONT Centre,,3.815296,51.579910,,
810,ODRIMONT Centre,,3.815465,51.579671,,
811,ODRIMONT Amcômont carrefour,,3.831108,51.582870,,
812,ODRIMONT Amcômont carrefour,,3.831308,51.583002,,
813,LES VILLETTES Noirefontaine,,3.857855,51.580093,,
814,LES VILLETTES Noirefontaine,,3.857862,51.579926,,
815,CHEVRON La Platte,,3.931213,51.517932,,
816,OUFNY Chapelle,,3.922247,51.518987,,
817,LES VILLETTES Route de Fosse,,3.868865,51.579753,,
818,LES VILLETTES Route de Fosse,,3.868438,51.579591,,
819,LES VILLETTES La Bosse,,3.856267,51.563541,,
820,LES VILLETTES La Bosse,,3.855975,51.563576,,
821,LES VILLETTES Erria carrefour,,3.854480,51.561844,,
822,LES VILLETTES Erria carrefour,,3.854567,51.561638,,
823,LES VILLETTES Erria n°75,,3.852732,51.556929,,
824,LES VILLETTES Erria n°75,,3.852184,51.556927,,
825,LES VILLETTES Eglise,,3.848523,51.552975,,
826,LES VILLETTES Eglise,,3.848942,51.553173,,
827,LES VILLETTES Centre,,3.850397,51.551589,,
828,LES VILLETTES Centre,,3.850864,51.551215,,
829,LES VILLETTES Les Fourirs,,3.850918,51.550465,,
830,LES VILLETTES Les Fourirs,,3.849304,51.547848,,
831,BRA-SUR-LIENNE Pont de Villette,,3.845854,51.543706,,
832,BRA-SUR-LIENNE Pont de Villette,,3.845941,51.544138,,
833,BRA SUR LIENNE Centre,,3.840472,51.532428,,
834,BRA SUR LIENNE Centre,,3.840191,51.532654,,
835,JEVIGNE Route de Manhay,,3.800586,51.550833,,
836,JEVIGNE Route de Manhay,,3.801150,51.550710,,
837,JEVIGNE Chemin de Baneux,,3.796559,51.552113,,
838,JEVIGNE Coreux,,3.793673,51.555315,,
839,JEVIGNE Coreux,,3.793753,51.555474,,
840,JEVIGNE Eglise,,3.795200,51.555074,,
841,LANSIVAL Village,,3.796390,51.559072,,
842,HIERLOT Poteau,,3.806368,51.566984,,
843,HIERLOT Poteau,,3.806241,51.567163,,
844,JEVIGNE Rue de Lierneux,,3.785242,51.558174,,
845,JEVIGNE Rue de Lierneux,,3.785081,51.558335,,
846,JEVIGNE Route de Malempré,,3.808646,51.531557,,
847,GRAND TRIXHE Carrefour,,3.942507,51.486454,,
848,GRAND TRIXHE Carrefour,,3.942770,51.486410,,
849,GRAND TRIXHE Carrefour,,3.943051,51.486686,,
850,GRAND TRIXHE Carrefour,,3.942821,51.486751,,
851,BURNONTIGE Chemin du Vicinal 5i,,3.938700,51.480913,,
852,BURNONTIGE Chemin du Vicinal 5i,,3.938913,51.480644,,
853,BURNONTIGE Chemin du Vicinal,,3.935860,51.475597,,
854,BURNONTIGE Chemin du Vicinal,,3.935625,51.475710,,
855,BURNONTIGE Rue du Burnontige,,3.934018,51.474122,,
856,BURNONTIGE Rue du Burnontige,,3.933869,51.474235,,
857,BURNONTIGE Mon Lecomte,,3.929824,51.472243,,
858,BURNONTIGe Mon Lecomte,,3.929642,51.472207,,
859,BURNONTIGE Chapelle,,3.933559,51.469282,,
860,BURNONTIGE Chapelle,,3.933267,51.469317,,
861,BURNONTIGE Fosse du Loup,,3.934537,51.473591,,
862,BURNONTIGE Fosse du Loup,,3.934766,51.473585,,
863,BURNONTIGE Le Raumont,,3.933216,51.460824,,
864,BURNONTIGE Le Raumont,,3.932972,51.460823,,
865,BURNONTIGE La Cherhalle,,3.940453,51.482770,,
866,BURNONTIGE La Cherhalle,,3.940619,51.482478,,
867,FERRIERES Voie du Thier,,3.951527,51.451731,,
868,FERRIERES Voie du Thier,,3.951445,51.451392,,
869,SAINT ROCH Collège,,4.000172,51.468431,,
870,SAINT ROCH Collège,,3.999583,51.468480,,
871,FERRIERES Malacord,,3.970039,51.449509,,
872,FERRIERES Malacord,,3.969801,51.449427,,
873,MY Carrefour,,3.983455,51.436802,,
874,MY Carrefour,,3.983648,51.436620,,
875,FERRIERES Place,,3.962311,51.450599,,
876,FERRIERES Lognoul,,3.963306,51.455321,,
877,FERRIERES Lognoul,,3.963477,51.455448,,
878,FERRIERES Houpet,,3.965640,51.456516,,
879,FERRIERES Houpet,,3.965797,51.456258,,
880,FERRIERES Rue des Aguesses,,3.968178,51.454655,,
881,FERRIERES Rue des Aguesses,,3.967926,51.454576,,
882,FERRIERES Au Clocher,,3.959556,51.448226,,
883,FERRIERES Au Clocher,,3.959867,51.448185,,
884,XHORIS Chemin de Harzé,,4.037328,51.460340,,
885,XHORIS Chemin de Harzé,,4.037032,51.460342,,
886,XHORIS Rue du Petit Bati,,4.024662,51.451389,,
887,XHORIS Rue du Petit Bati,,4.024596,51.451254,,
888,XHORIS Mont de Fontaine,,4.021327,51.451607,,
889,XHORIS Mont de Fontaine,,4.021192,51.451765,,
890,XHORIS Le Chafour,,4.032935,51.458989,,
891,XHORIS Le Chafour,,4.033357,51.458933,,
892,ARLON R des 2 Luxembourg 11,,2.824955,51.585694,,
893,ARLON R des 2 Luxembourg 11,,2.824624,51.585869,,
894,ARLON TEC - Rue des Genêts,,2.825070,51.585309,,
895,ARLON TEC - Rue des Genêts,,2.825329,51.585309,,
896,ARLON TEC - Rue Sainte-Croix,,2.824964,51.585327,,
897,ARLON TEC - Rue Sainte-Croix,,2.824827,51.585225,,
898,ARLON TEC - Rue de Bastogne,,2.825359,51.585736,,
899,ARLON TEC - Rue de Bastogne,,2.825275,51.585495,,
900,ARLON Rue de Bastogne n°198,,2.830647,51.585678,,
901,ARLON Rue de Bastogne n°198,,2.830014,51.585634,,
902,BONNERT Rond-point - Rue du Vicinal,,2.834948,51.585659,,
903,BONNERT Rond-Point - Rue du Vicinal,,2.834668,51.585704,,
904,VIVILLE Cimetière,,2.842834,51.577097,,
905,VIVILLE Cimetière,,2.843677,51.577189,,
906,ARLON Drève de l'Arc-en-Ciel,,2.801766,51.569293,,
907,ARLON Drève de l'Arc-en-Ciel,,2.801301,51.569407,,
908,VIVILLE Lavoir,,2.834428,51.577246,,
909,VIVILLE Lavoir,,2.834476,51.576975,,
910,ARLON Rue de Viville,,2.828310,51.580892,,
911,ARLON Rue de Viville,,2.826718,51.581465,,
912,ARLON Rue de la Promenade,,2.828050,51.580467,,
913,ARLON Rue des 2 Luxembourg,,2.824653,51.588441,,
914,ARLON Rue des 2 Luxembourg,,2.824906,51.588786,,
915,ARLON Avenue Numa-Ensch-Tesch,,2.825628,51.579812,,
916,ARLON Drève de la Sapinière,,2.823745,51.579902,,
917,ARLON Ecole du Galgenberg,,2.819430,51.579384,,
918,ARLON Gare Urbain,,2.810613,51.583719,,
919,ARLON Bon Coin,,2.824456,51.582685,,
920,ARLON Bon Coin,,2.824198,51.582628,,
921,ARLON Rond-Point du Knappchen,,2.833091,51.585694,,
922,ARLON Rond-Point du Knappchen,,2.832585,51.585541,,
923,ARLON Liedel,,2.816042,51.594400,,
924,ARLON Liedel,,2.816191,51.594221,,
925,ARLON Avenue de Longwy - GB,,2.804855,51.594421,,
926,ARLON Avenue de Longwy - GB,,2.805477,51.594234,,
927,ARLON Clinique,,2.806452,51.592869,,
928,ARLON Clinique,,2.807269,51.592619,,
929,ARLON Clinique,,2.806245,51.592579,,
930,ARLON Clinique,,2.806435,51.592518,,
931,ARLON Carrefour de la Spetz,,2.802171,51.594422,,
932,ARLON Carrefour de la Spetz,,2.799969,51.594663,,
933,ARLON Avenue de Longwy,,2.794437,51.594374,,
934,ARLON Avenue de Longwy,,2.794490,51.594231,,
935,ARLON Avenue Patton,,2.794908,51.592097,,
936,ARLON Avenue Patton,,2.794810,51.591880,,
937,ARLON ISI,,2.797928,51.588469,,
938,ARLON ISI,,2.796962,51.588870,,
939,ARLON Espace Semois,,2.805830,51.586056,,
940,ARLON Espace Semois,,2.806260,51.586301,,
941,ARLON Avenue Tesch,,2.811164,51.588364,,
942,ARLON Gare - Quai 6,,2.810256,51.583543,,
943,ARLON Gare - Quai 4,,2.810143,51.583755,,
944,ARLON Gare - Quai 3,,2.810085,51.583866,,
945,ARLON Gare - Quai 1,,2.809975,51.584070,,
946,ARLON Gare - Quai 5,,2.810209,51.583653,,
947,ARLON Gare - Quai 2,,2.810029,51.583966,,
948,ARLON Avenue Nothomb,,2.812508,51.585554,,
949,ARLON XXV Août,,2.814179,51.586507,,
950,ARLON XXV Août,,2.814019,51.586271,,
951,ARLON Rue Léon Castilhon,,2.813575,51.582886,,
952,ARLON Sq Astrid - R de Bastogne,,2.818560,51.585548,,
953,ARLON Sq Astrid - R de Bastogne,,2.818321,51.585338,,
954,ARLON ISMA,,2.821150,51.585345,,
955,ARLON ISMA,,2.820794,51.585182,,
956,ARLON Square Astrid - Rue de Neufchâteau,,2.817365,51.584616,,
957,ARLON Square Astrid - Rue de Neufchâteau,,2.817104,51.584648,,
958,ARLON INDA,,2.812589,51.588308,,
959,ARLON Rue de Rédange,,2.829570,51.591464,,
960,ARLON Rue de Rédange,,2.830408,51.591517,,
961,ARLON Athénée,,2.801111,51.585230,,
962,ARLON Athénée,,2.800882,51.585191,,
963,ARLON Athénée,,2.800695,51.585171,,
964,ARLON Route de Virton Carrefour,,2.785874,51.562844,,
965,ARLON Route de Virton Carrefour,,2.785893,51.562536,,
966,ARLON Avenue du Bois d'Arlon n°186,,2.792131,51.569687,,
967,ARLON Avenue du Bois d'Arlon n°186,,2.792111,51.569441,,
968,ARLON Avenue du Bois d'Arlon n°96,,2.798742,51.572552,,
969,ARLON Avenue du Bois d'Arlon n°96,,2.800526,51.573097,,
970,ARLON Avenue du Bois d'Arlon n°13,,2.804580,51.576512,,
971,ARLON avenue du Bois d'Arlon n°13,,2.804824,51.576377,,
972,ARLON Place de l'Yser,,2.805938,51.581144,,
973,ARLON Place de l'Yser,,2.806134,51.581045,,
974,ARLON Rue de la Semois n°126,,2.806749,51.582084,,
975,ARLON Rue de Sesselich,,2.793562,51.584448,,
976,ARLON Hydrion 1,,2.816898,51.572330,,
977,ARLON Rue de l'Hydrion,,2.813466,51.578686,,
978,ARLON ADEPS,,2.815737,51.575480,,
979,ARLON Place des Chasseurs Ardennais,,2.817465,51.590197,,
980,ARLON Espace Didier,,2.816738,51.586905,,
981,ARLON Rue Godefroid Kurth,,2.817097,51.593287,,
982,ARLON Briqueterie,,2.799640,51.580941,,
983,ARLON Briqueterie,,2.799703,51.580790,,
984,ARLON Maison Blanche,,2.788030,51.577453,,
985,ARLON Maison Blanche,,2.788254,51.577349,,
986,VIVILLE Eglise,,2.837616,51.573453,,
987,VIVILLE Eglise,,2.837354,51.573545,,
988,VIVILLE Ateliers SNCB - N40,,2.826525,51.570343,,
989,VIVILLE Ateliers SNCB - N40,,2.826302,51.570143,,
990,VIVILLE Ateliers SNCB - N40,,2.826716,51.570116,,
991,ARLON Delhaize,,2.818399,51.577860,,
992,ARLON Delhaize,,2.817695,51.578615,,
993,ARLON Gendarmerie,,2.818184,51.580228,,
994,ARLON Gendarmerie,,2.817964,51.580507,,
995,ARLON Chemin des Espagnols n°202,,2.817682,51.595829,,
996,ARLON Route de Mersch n°85,,2.820122,51.597524,,
997,ARLON Route de Mersch n°187,,2.823522,51.600732,,
998,WALTZING Rue de la Petite Gaichel n°2,,2.826536,51.604142,,
999,WALTZING Rue de la Petite Gaichel n°25,,2.824168,51.605603,,
1000,WALTZING Chemin de la Rentertkapell,,2.818150,51.605553,,
1001,WALTZING Rue des Fermes,,2.814796,51.602216,,
1002,ARLON Rue des Espagnols,,2.819118,51.595435,,
1003,WALTZING Ecole Gardienne,,2.810353,51.602697,,
1004,WALTZING Ecole Primaire,,2.810659,51.600484,,
1005,WALTZING Val-Vert,,2.809609,51.597791,,
1006,WALTZING Rue Beau-Site,,2.807355,51.596294,,
1007,ARLON Chemin des Espagnols n°269,,2.811050,51.595608,,
1008,ARLON Avenue du 10ème de Ligne,,2.820055,51.592395,,
1009,ARLON Avenue du 10ème de Ligne,,2.819972,51.592515,,
1010,ARLON Cimetière,,2.828100,51.590221,,
1011,ARLON Cimetière,,2.827951,51.590389,,
1012,WALTZING Salle,,2.810447,51.604526,,
1013,WALTZING Salle,,2.810634,51.604115,,
1014,WALTZING Rue du Lycia,,2.804282,51.605847,,
1015,WALTZING Rue du Lingenthal,,2.805302,51.607695,,
1016,ARLON Wolberg,,2.773650,51.615869,,
1017,ARLON Wolberg,,2.773419,51.615866,,
1018,ARLON Royer,,2.783118,51.605451,,
1019,ARLON Royer,,2.783084,51.605190,,
1020,ARLON Rue Hallebardier n°27,,2.802672,51.577466,,
1021,ARLON Rue Hallebardier n°65,,2.796915,51.577904,,
1022,ARLON Ville-en-Pré,,2.787412,51.583297,,
1023,ARLON Hydrion 2,,2.812782,51.571079,,
1024,ARLON La Bascule,,2.809575,51.581557,,
1025,ARLON Callemeyn,,2.824616,51.593717,,
1026,ARLON Callemeyn,,2.824274,51.593647,,
1027,STOCKEM Route d'Etalle,,2.819077,51.536475,,
1028,STOCKEM Route d'Etalle,,2.818775,51.536435,,
1029,N82 Domaine du Bois d'Arlon,,2.770146,51.545942,,
1030,N82 Domaine du Bois d'Arlon,,2.771545,51.547037,,
1031,N82 Repos des Chasseurs,,2.778448,51.555258,,
1032,N82 Repos des Chasseurs,,2.778499,51.554995,,
1033,STOCKEM Route de Bouillon n°242,,2.819744,51.555300,,
1034,STOCKEM Route de Bouillon n°242,,2.819448,51.555279,,
1035,STOCKEM Lavoir,,2.816487,51.559292,,
1036,STOCKEM Cimetière,,2.811412,51.559818,,
1037,STOCKEM Centre,,2.819948,51.560257,,
1038,STOCKEM Centre,,2.819663,51.560340,,
1039,STOCKEM Carrefour Rue des Ateliers,,2.820256,51.568914,,
1040,STOCKEM Carrefour Rue des Ateliers,,2.820069,51.569334,,
1041,HEINSCH Rue de Thiaumont,,2.844659,51.543301,,
1042,HEINSCH Rue de Thiaumont,,2.844494,51.543183,,
1043,HEINSCH Monument,,2.840956,51.544938,,
1044,HEINSCH Monument,,2.840594,51.544420,,
1045,FREYLANGE Rue du Panorama,,2.841254,51.551644,,
1046,FREYLANGE Rue du Panorama,,2.840928,51.551514,,
1047,FREYLANGE Ecole,,2.840548,51.555704,,
1048,FREYLANGE Ecole,,2.840278,51.555743,,
1049,FREYLANGE Avenue de Pforzheim,,2.836367,51.557149,,
1050,FREYLANGE Avenue de Pforzheim,,2.836334,51.556990,,
1051,FREYLANGE Eglise,,2.836459,51.558426,,
1052,FREYLANGE Eglise,,2.836217,51.558648,,
1053,FREYLANGE Rue de Viville n°34,,2.837065,51.560145,,
1054,FREYLANGE Rue de Viville n°34,,2.836880,51.560382,,
1055,FREYLANGE N40,,2.829950,51.558037,,
1056,FREYLANG N40,,2.829720,51.557998,,
1057,HEINSCH Nationale 40,,2.839163,51.544528,,
1058,HEINSCH Nationale 40,,2.839184,51.544348,,
1059,HEINSCH Route de Neufchâteau,,2.839105,51.538714,,
1060,HEINSCH Route de Neufchâteau,,2.838843,51.538501,,
1061,STOCKEM IMP,,2.829161,51.558494,,
1062,CHATILLON Carrefour Rue Fourneau,,2.717646,51.501609,,
1063,CHATILLON Carrefour Rue Fourneau,,2.718449,51.502591,,
1064,CHATILLON Rue d'Ahérée,,2.720201,51.506337,,
1065,CHATILLON Rue d'Ahérée,,2.720559,51.506372,,
1066,CHATILLON Carrefour Rue Neuve,,2.720660,51.511519,,
1067,CHATILLON Carrefour Rue Neuve,,2.721323,51.511091,,
1068,CHATILLON Cercle Saint-Pierre,,2.721159,51.513539,,
1069,CHATILLON Cercle Saint-Pierre,,2.721482,51.513501,,
1070,CHATILLON Grand-Rue n°42,,2.723562,51.516075,,
1071,CHATILLON Grand-Rue n°42,,2.723555,51.515862,,
1072,CHATILLON La Croix,,2.727991,51.520238,,
1073,CHATILLON La Croix,,2.727967,51.519992,,
1074,CHATILLON La Croix,,2.728788,51.520015,,
1075,CHATILLON La Croix,,2.728869,51.519864,,
1076,MEIX-LE-TIGE Rue de Rachecourt,,2.700788,51.525421,,
1077,MEIX-LE-TIGE Rue de Rachecourt,,2.700605,51.525279,,
1078,MEIX-LE-TIGE Rue Rossé,,2.703561,51.525649,,
1079,MEIX-LE-TIGE Rue Rossé,,2.703812,51.525581,,
1080,MEIX-LE-TIGE Ecole,,2.706810,51.526665,,
1081,MEIX-LE-TIGE Ecole,,2.706882,51.526262,,
1082,MEIX-LE-TIGE Rue du Tram Carrefour,,2.706719,51.523985,,
1083,MEIX-LE-TIGE Rue du Tram Carrefour,,2.706621,51.523894,,
1084,MEIX-LE-TIGE Rue du Tram n°33,,2.712501,51.523904,,
1085,MEIX-LE-TIGE Rue du Tram n°33,,2.712482,51.523763,,
1086,MEIX-LE-TIGE Rue du Tram n°55,,2.718258,51.523282,,
1087,MEIX-LE-TIGE Rue du Tram n°55,,2.718691,51.523013,,
1088,N82 La Barrière - Baudrux,,2.671917,51.475184,,
1089,N82 La Barrière - Baudrux,,2.672197,51.475095,,
1090,SAINT-LEGER Rue de Virton n°29,,2.685630,51.481681,,
1091,SAINT-LEGER Rue de Virton n°29,,2.685084,51.481374,,
1092,SAINT-LEGER Complexe Sportif,,2.691698,51.481892,,
1093,SAINT-LEGER Complexe Sportif,,2.691729,51.481710,,
1094,SAINT-LEGER Rue du 5 Septembre,,2.699725,51.484882,,
1095,SAINT-LEGER Rue du 5 Septembre,,2.699867,51.484671,,
1096,SAINT-LEGER Rue d'Arlon n°33,,2.703800,51.488894,,
1097,SAINT-LEGER Rue d'Arlon n°33,,2.703893,51.488683,,
1098,SAINT-LEGER Rue d'Arlon n°45,,2.707219,51.490740,,
1099,SAINT-LEGER Rue d'Arlon n°45,,2.707231,51.490519,,
1100,ETHE Hamawé,,2.661754,51.455067,,
1101,ETHE Hamawé,,2.660654,51.454212,,
1102,ETHE Rabais Grand-Route,,2.650445,51.419007,,
1103,ETHE Rabais Grand-Route,,2.650351,51.419218,,
1104,ETHE Belmont,,2.650817,51.422560,,
1105,ETHE Belmont,,2.650615,51.422575,,
1106,ETHE Rue de Rabais n°3,,2.651192,51.427066,,
1107,ETHE Rue de Rabais n°3,,2.650940,51.427003,,
1108,ETHE Rue Ville Basse,,2.651231,51.429767,,
1109,ETHE Rue Ville Basse,,2.650949,51.429880,,
1110,ETHE Eglise,,2.649602,51.435314,,
1111,ETHE Eglise,,2.649386,51.435197,,
1112,ETHE Rue Dr Hustin - Carrefour,,2.649542,51.437696,,
1113,ETHE Rue Dr Hustin - Carrefour,,2.649409,51.438074,,
1114,ETHE Dépôt TEC,,2.652533,51.440966,,
1115,ETHE Dépôt TEC,,2.652300,51.441052,,
1116,ETHE Rue Château Cugnon n°78,,2.657659,51.436288,,
1117,ETHE Rue Château Cugnon n°78,,2.657785,51.436131,,
1118,ETHE Rue Château Cugnon n°47,,2.653532,51.436660,,
1119,ETHE Rue Château Cugnon n°47,,2.653431,51.436530,,
1120,ETHE Ecole Spéciale,,2.652166,51.440928,,
1121,ETHE Ecole Spéciale,,2.651617,51.440864,,
1122,SAINT-MARD Gare,,2.619413,51.395719,,
1123,VIRTON Carrefour Avenue Bouvier,,2.621436,51.397058,,
1124,VIRTON Carrefour Avenue Bouvier,,2.621297,51.396811,,
1125,VIRTON Paradis des Enfants,,2.622888,51.397808,,
1126,VIRTON Paradis des Enfants,,2.624375,51.398378,,
1127,VIRTON Collège Notre-Dame Bonlieu,,2.627218,51.400775,,
1128,VIRTON Collège Notre-Dame Bonlieu,,2.627440,51.400704,,
1129,VIRTON Arcades,,2.629243,51.403097,,
1130,VIRTON Arcades,,2.629327,51.402763,,
1131,VIRTON Arcades,,2.629217,51.403043,,
1132,VIRTON Arcades,,2.629382,51.402818,,
1133,VIRTON Institut Sainte Famille,,2.628073,51.398271,,
1134,VIRTON Institut Sainte Famille,,2.628185,51.397933,,
1135,VIRTON Carmel,,2.632264,51.408032,,
1136,VIRTON Carmel,,2.631987,51.407351,,
1137,VIRTON Delhaize,,2.634995,51.410356,,
1138,VIRTON Delhaize,,2.635125,51.410199,,
1139,SAINT-MARD Rue de Dampicourt,,2.624416,51.392161,,
1140,SAINT-MARD Rue de Dampicourt,,2.624161,51.392217,,
1141,SAINT-MARD Rue de la Station,,2.616711,51.399605,,
1142,SAINT-MARD Rue de la Station,,2.616519,51.399501,,
1143,SAINT-MARD Clinique,,2.608163,51.400166,,
1144,SAINT-MARD Clinique,,2.607536,51.399784,,
1145,SAINT-MARD Centre Sportif,,2.606909,51.396070,,
1146,SAINT-MARD Rue du Temple,,2.611440,51.401940,,
1147,SAINT-MARD Ecole Spéciale,,2.603129,51.403045,,
1148,VIRTON Faubourg d'Arival,,2.618437,51.403029,,
1149,VIRTON Faubourg d'Arival,,2.618464,51.402850,,
1150,VIRTON Athénée,,2.624859,51.403501,,
1151,VIRTON Athénée,,2.624724,51.403244,,
1152,VIRTON Institut Pierrard,,2.641654,51.414982,,
1153,SAINT-MARD Avenue Wauters n°49,,2.611435,51.409023,,
1154,SAINT-MARD Avenue Wauters n°49,,2.611114,51.408935,,
1155,SAINT-MARD Passage à Niveau,,2.611544,51.413311,,
1156,SAINT-MARD Passage à Niveau,,2.611382,51.413245,,
1157,SAINT-MARD Eglise,,2.610332,51.403476,,
1158,SAINT-MARD Eglise,,2.610029,51.403794,,
1159,VIRTON Rue des Fossés (marché),,2.631358,51.405358,,
1160,VIRTON Rue Maréchal Foch,,2.640928,51.400511,,
1161,VIRTON Rue Maréchal Foch,,2.641243,51.400300,,
1162,SAINT-MARD Rue d'Harnoncourt,,2.609633,51.402866,,
1163,SAINT-MARD Rue Edmond Jacques,,2.610488,51.402654,,
1164,HOUDRIGNY Rue Fenderie,,2.653936,51.378958,,
1165,HOUDRIGNY Rue Fenderie,,2.653744,51.378860,,
1166,HOUDRIGNY Rue Yvan Gils,,2.643304,51.380557,,
1167,HOUDRIGNY Rue Yvan Gils,,2.643068,51.380479,,
1168,DAMPICOURT Beauregard,,2.630467,51.381521,,
1169,DAMPICOURT Beauregard,,2.630876,51.381333,,
1170,DAMPICOURT Rivage,,2.617363,51.382722,,
1171,DAMPICOURT Rivage,,2.616783,51.383603,,
1172,DAMPICOURT Rivage,,2.617071,51.383608,,
1173,DAMPICOURT Champé,,2.624011,51.387133,,
1174,DAMPICOURT Champé,,2.623775,51.387203,,
1175,DAMPICOURT Rue du 8 Septembre,,2.615784,51.383058,,
1176,DAMPICOURT Rue du 8 Septembre,,2.615833,51.382883,,
1177,COUVREUX Carrefour de Montquintin,,2.606173,51.366068,,
1178,COUVREUX Carrefour de Montquintin,,2.605869,51.366054,,
1179,MONTQUINTIN Centre,,2.594180,51.365233,,
1180,MONTQUINTIN Centre,,2.594297,51.365079,,
1181,ROUVROY Cimetière,,2.584796,51.377107,,
1182,ROUVROY Cimetière,,2.583691,51.376575,,
1183,ROUVROY Quartier des Ouyelis,,2.583046,51.377301,,
1184,ROUVROY Quartier des Ouyelis,,2.584393,51.377125,,
1185,HARNONCOURT Ecole,,2.580581,51.382012,,
1186,HARNONCOURT Ecole,,2.580271,51.381867,,
1187,DAMPICOURT Burgo Ardennes,,2.600310,51.378900,,
1188,DAMPICOURT Burgo Ardennes,,2.600566,51.378823,,
1189,DAMPICOURT Eglise,,2.608203,51.382173,,
1190,DAMPICOURT Eglise,,2.607875,51.381977,,
1191,DAMPICOURT Ecole,,2.612500,51.381623,,
1192,VILLERS-LA-LOUE Centre,,2.641720,51.370718,,
1193,VILLERS-LA-LOUE Centre,,2.642114,51.371972,,
1194,COUVREUX Centre,,2.608097,51.360397,,
1195,COUVREUX Rue des Pignons,,2.606602,51.360594,,
1196,LAMORTEAU Cimetière,,2.569277,51.369545,,
1197,LAMORTEAU Cimetière,,2.568987,51.369754,,
1198,LAMORTEAU Douane,,2.568051,51.362119,,
1199,LAMORTEAU Douane,,2.567695,51.361571,,
1200,LAMORTEAU Ecole,,2.566333,51.368833,,
1201,LAMORTEAU Ecole,,2.566476,51.368960,,
1202,LAMORTEAU Eglise,,2.565198,51.369318,,
1203,LAMORTEAU Eglise,,2.565090,51.369159,,
1204,TORGNY Rue de Lamorteau,,2.543827,51.359597,,
1205,TORGNY Rue de Lamorteau,,2.543537,51.359581,,
1206,TORGNY Lavoir,,2.535962,51.365841,,
1207,LAMORTEAU Grand-Rue n°24,,2.564219,51.370113,,
1208,LAMORTEAU Grand-Rue n°24,,2.564489,51.370030,,
1209,LAMORTEAU Rue du Sauveur,,2.565595,51.372049,,
1210,LAMORTEAU Rue du Sauveur,,2.565712,51.371838,,
1211,TORGNY Terrain de football,,2.533924,51.362513,,
1212,ECOUVIEZ Centre,,2.567724,51.360618,,
1213,VERNEUIL-LE-GRAND,,2.565926,51.329627,,
1214,MONTMEDY Place Poincaré,,2.554916,51.296140,,
1215,MONTMEDY Gare S.N.C.F.,,2.560187,51.299300,,
1216,MONTMEDY Collège d'Allamont,,2.548797,51.301814,,
1217,WEYLER Grand-Route,,2.772468,51.592383,,
1218,WEYLER Grand-Route,,2.771904,51.592106,,
1219,TOERNICH Rue d'Arlon n°60,,2.764302,51.569397,,
1220,TOERNICH Rue d'Arlon n°60,,2.764091,51.569077,,
1221,TOERNICH Centre,,2.762877,51.565989,,
1222,TOERNICH Centre,,2.763006,51.565883,,
1223,TOERNICH 4 Bras,,2.754006,51.567121,,
1224,TOERNICH 4 Bras,,2.754126,51.566857,,
1225,AUTELHAUT Chemin des Mines,,2.747043,51.604919,,
1226,AUTELHAUT Chemin des Mines,,2.747303,51.605033,,
1227,AUTELHAUT Eglise,,2.762578,51.606651,,
1228,AUTELHAUT Eglise,,2.763141,51.606767,,
1229,HONDELANGE Rue de la Chapelle n°37,,2.736355,51.595876,,
1230,HONDELANGE Rue de la Chapelle n°37,,2.736093,51.595877,,
1231,HONDELANGE Centre,,2.732718,51.599468,,
1232,HONDELANGE Centre,,2.732551,51.599427,,
1233,HONDELANGE Rue du Pont,,2.729726,51.602692,,
1234,HONDELANGE Rue du Pont,,2.729594,51.602508,,
1235,HONDELANGE Rue de la Biff,,2.741485,51.604226,,
1236,HONDELANGE Rue de la Biff,,2.741301,51.603990,,
1237,DIFFERT CORA N81,,2.704030,51.584944,,
1238,DIFFERT CORA N81,,2.704025,51.584686,,
1239,MESSANCY Rue d'Arlon n°156,,2.688939,51.585951,,
1240,MESSANCY Rue d'Arlon n°156,,2.689113,51.585777,,
1241,MESSANCY Rue d'Arlon n°46,,2.677914,51.586739,,
1242,MESSANCY Rue d'Arlon n°46,,2.678109,51.586554,,
1243,MESSANCY Maison Communale,,2.671807,51.587641,,
1244,MESSANCY Maison Communale,,2.672045,51.587313,,
1245,MESSANCY Clinique,,2.663140,51.589423,,
1246,MESSANCY Clinique,,2.663533,51.589301,,
1247,MESSANCY Avenue de Longwy,,2.653507,51.584970,,
1248,MESSANCY Avenue de Longwy,,2.653362,51.584591,,
1249,MESSANCY La Hard,,2.659650,51.583651,,
1250,MESSANCY La Hard,,2.659689,51.583478,,
1251,MESSANCY Rue du Dolberg,,2.667075,51.592320,,
1252,MESSANCY Rue du Dolberg,,2.667297,51.592025,,
1253,DIFFERT Rue Albert 1er n°27,,2.717185,51.582920,,
1254,DIFFERT Rue Albert 1er n°27,,2.716908,51.582943,,
1255,DIFFERT Pépinière,,2.710676,51.584197,,
1256,DIFFERT Pépinière,,2.711089,51.584074,,
1257,DIFFERT Institut,,2.701922,51.584173,,
1258,DIFFERT Institut,,2.701775,51.584252,,
1259,DIFFERT CORA Route de Turpange,,2.706600,51.586216,,
1260,DIFFERT CORA Route de Turpange,,2.706438,51.586070,,
1261,TURPANGE Cercle Saint-Hubert,,2.701115,51.590149,,
1262,TURPANGE Cercle Saint-Hubert,,2.700871,51.590011,,
1263,TURPANGE Rue Belle-Vue,,2.698717,51.590915,,
1264,TURPANGE Rue Belle-Vue,,2.698558,51.590779,,
1265,TURPANGE Passage à Niveau,,2.688196,51.591325,,
1266,TURPANGE Passage à Niveau,,2.688260,51.591162,,
1267,MESSANCY Château d'Eau,,2.679166,51.591593,,
1268,MESSANCY Château d'Eau,,2.679076,51.591445,,
1269,MESSANCY Rue de la Promenade,,2.673874,51.591057,,
1270,MESSANCY Rue de la Promenade,,2.673781,51.591256,,
1271,MESSANCY Rue du Château,,2.673504,51.591737,,
1272,MESSANCY Rue du Château,,2.673296,51.591621,,
1273,MESSANCY Rue de Luxembourg - Cités,,2.670016,51.593040,,
1274,MESSANCY Rue de Luxembourg - Cités,,2.669798,51.593213,,
1275,MESSANCY Rue de Luxembourg n°43,,2.670412,51.596772,,
1276,MESSANCY Rue de Luxembourg n°43,,2.670120,51.596642,,
1277,MESSANCY Rue de Luxembourg n°69,,2.670610,51.600041,,
1278,MESSANCY Rue de Luxembourg n°69,,2.670401,51.600008,,
1279,MESSANCY Rue Kirsch,,2.652251,51.591361,,
1280,MESSANCY Rue Kirsch,,2.652226,51.591169,,
1281,MESSANCY Rue Kirsch n°34,,2.656248,51.590062,,
1282,MESSANCY Rue Kirsch n°34,,2.656364,51.589917,,
1283,MESSANCY Rue d'Aubange,,2.662371,51.589547,,
1284,MESSANCY Rue d'Aubange,,2.662309,51.589382,,
1285,MESSANCY Ecole Le Castel,,2.673167,51.587930,,
1286,MESSANCY Ecole Le Castel,,2.672916,51.587821,,
1287,MESSANCY Ecole Primaire,,2.670365,51.589176,,
1288,MESSANCY Ecole Primaire,,2.670351,51.589032,,
1289,SELANGE Rue de Clemency,,2.689882,51.611296,,
1290,SELANGE Rue de Clemency,,2.690077,51.611095,,
1291,SELANGE Eglise,,2.696212,51.611106,,
1292,SELANGE Eglise,,2.696582,51.610854,,
1293,SELANGE Rue du Bois,,2.699552,51.609768,,
1294,SELANGE Rue du Bois,,2.699294,51.609714,,
1295,ATHUS Grand-Rue,,2.621210,51.600326,,
1296,ATHUS Grand-Rue,,2.620944,51.600508,,
1297,ATHUS Gare,,2.622966,51.597104,,
1298,ATHUS Clinique,,2.622092,51.593028,,
1299,ATHUS Clinique,,2.621946,51.592297,,
1300,ATHUS Rue de Rodange,,2.612952,51.602656,,
1301,ATHUS Rue de Rodange,,2.613271,51.602478,,
1302,ATHUS Centre - Rue Houillon,,2.620940,51.602521,,
1303,ATHUS Centre - Rue Houillon,,2.621021,51.602388,,
1304,ATHUS Ecoles,,2.623374,51.603156,,
1305,ATHUS Ecoles,,2.623512,51.602933,,
1306,ATHUS Rue Houillon,,2.623256,51.601951,,
1307,ATHUS Rue de Longeau n°4,,2.627903,51.600079,,
1308,ATHUS Rue de Longeau n°4,,2.628031,51.599890,,
1309,ATHUS Rue de Longeau n°112,,2.634133,51.600224,,
1310,ATHUS Rue de Longeau n°112,,2.634216,51.600070,,
1311,LONGEAU Chapelle,,2.645279,51.600161,,
1312,LONGEAU Chapelle,,2.644452,51.600017,,
1313,LONGEAU Passage à Niveau,,2.648675,51.596569,,
1314,LONGEAU Passage à Niveau,,2.648246,51.596567,,
1315,LONGEAU Rue Beau Séjour,,2.648233,51.594864,,
1316,LONGEAU Rue Beau Séjour,,2.648368,51.594707,,
1317,ATHUS Rue de Guerlange n°25,,2.630686,51.605145,,
1318,ATHUS Rue de Guerlange n°25,,2.631233,51.605066,,
1319,ATHUS Rue Bellevue,,2.637929,51.607183,,
1320,ATHUS Rue Bellevue,,2.638102,51.607057,,
1321,GUERLANGE Le Pas de Loup,,2.644492,51.610037,,
1322,GUERLANGE Le Pas de Loup,,2.644048,51.609546,,
1323,GUERLANGE Rue Saint-Martin,,2.651453,51.614150,,
1324,GUERLANGE Rue Saint-Martin,,2.651621,51.614266,,
1325,ATHUS Rue des Sapins,,2.637141,51.609056,,
1326,ATHUS Rue des Sapins,,2.636922,51.609164,,
1327,ATHUS Rue de Guerlange n°126,,2.636318,51.610108,,
1328,ATHUS Rue de Guerlange n°126,,2.636551,51.610034,,
1329,AUBANGE Rue d'Athus,,2.623352,51.587931,,
1330,AUBANGE Rue d'Athus,,2.623123,51.587874,,
1331,AUBANGE Rue du Village,,2.627354,51.584753,,
1332,AUBANGE Rue du Village,,2.627184,51.584661,,
1333,AUBANGE Place,,2.630993,51.581597,,
1334,AUBANGE Place,,2.630661,51.581988,,
1335,AUBANGE Rond-Point Rue Perbal,,2.631793,51.580647,,
1336,AUBANGE Rond-Point Rue Perbal,,2.631462,51.580633,,
1337,AUBANGE Le Clémarais,,2.634806,51.576519,,
1338,AUBANGE Le Clémarais,,2.634485,51.576578,,
1339,AUBANGE Rue Grange au Mont,,2.635090,51.574303,,
1340,AUBANGE Rue Grange au Mont,,2.634889,51.574274,,
1341,AUBANGE Ecole Communale,,2.626412,51.579481,,
1342,AUBANGE Ecole Communale,,2.626401,51.579238,,
1343,AUBANGE Gare,,2.623115,51.577752,,
1344,AUBANGE Gare,,2.623205,51.577526,,
1345,AUBANGE Route du Zoning,,2.618264,51.575172,,
1346,AUBANGE Route du Zoning,,2.618471,51.575038,,
1347,AUBANGE Rue Nizette,,2.611519,51.571567,,
1348,AUBANGE Rue Nizette,,2.611929,51.571535,,
1349,ATHUS Rue du Centre,,2.622286,51.601259,,
1350,AUBANGE Garage Toyota,,2.641602,51.582261,,
1351,AUBANGE Garage Toyota,,2.641150,51.581991,,
1352,AUBANGE Rue de Messancy,,2.648514,51.583811,,
1353,AUBANGE Rue de Messancy,,2.648382,51.583609,,
1354,ATHUS IMMA,,2.622021,51.596161,,
1355,ATHUS Avenue des Chasseurs Ardennais,,2.634528,51.603400,,
1356,ATHUS Avenue des Chasseurs Ardennais,,2.634289,51.603390,,
1357,AIX-SUR-CLOIE Rue des Alliés n°84,,2.629456,51.558202,,
1358,AIX-SUR-CLOIE Rue des Alliés n°84,,2.629492,51.558553,,
1359,AIX-SUR-CLOIE Rue des Alliés n°46,,2.633407,51.561559,,
1360,AIX-SUR-CLOIE Rue des Alliés n°46,,2.633308,51.561800,,
1361,AIX-SUR-CLOIE Centre,,2.641993,51.565989,,
1362,AIX-SUR-CLOIE Centre,,2.642189,51.565867,,
1363,AIX-SUR-CLOIE Rue Claie n°77,,2.645717,51.564470,,
1364,AIX-SUR-CLOIE Rue Claie n°77,,2.645158,51.564669,,
1365,BATTINCOURT Eglise,,2.651162,51.554436,,
1366,BATTINCOURT Eglise,,2.651241,51.554218,,
1367,BATTINCOURT Centre,,2.649718,51.551367,,
1368,BATTINCOURT Centre,,2.649708,51.551107,,
1369,BATTINCOURT Rue des 7 Fontaines n°61,,2.643658,51.549796,,
1370,BATTINCOURT Rue des 7 Fontaines n°61,,2.643257,51.549746,,
1371,AIX-SUR-CLOIE N88,,2.638173,51.566791,,
1372,AIX-SUR-CLOIE N88,,2.637772,51.566998,,
1373,AUBANGE Rue de la Forge n°47,,2.636180,51.571742,,
1374,AUBANGE Rue de la Forge n°47,,2.635889,51.571825,,
1375,HALANZY Cités,,2.624920,51.541841,,
1376,HALANZY EPE Rue Mathieu,,2.612213,51.544150,,
1377,HALANZY Rue de la Barrière,,2.617131,51.544346,,
1378,HALANZY Rue de la Barrière,,2.616778,51.544289,,
1379,HALANZY N88 - Route de Battincourt,,2.621808,51.550294,,
1380,HALANZY N88 - Route de Battincourt,,2.621673,51.550582,,
1381,HALANZY Route de Virton n°33,,2.624560,51.553690,,
1382,HALANZY Route de Virton n°33,,2.624182,51.553648,,
1383,HALANZY Kiosque,,2.615979,51.540104,,
1384,HALANZY Kiosque,,2.615687,51.539967,,
1385,HALANZY Rue de la Gaume n°23,,2.614663,51.535044,,
1386,HALANZY Rue de la Gaume n°23,,2.614477,51.534994,,
1387,HALANZY Rue de la Gaume n°66,,2.616933,51.531814,,
1388,HALANZY Rue de la Gaume n°66,,2.616761,51.531776,,
1389,HALANZY Rue de la Chapelle,,2.617495,51.544003,,
1390,HALANZY Rue de la Chapelle,,2.617395,51.543856,,
1391,HALANZY Cités - Rue Jules Bary,,2.623750,51.542908,,
1392,WILLANCOURT Route de Gennevaux,,2.656131,51.513236,,
1393,WILLANCOURT Route de Gennevaux,,2.656173,51.513022,,
1394,WILLANCOURT Eglise,,2.648579,51.514080,,
1395,WILLANCOURT Eglise,,2.648562,51.513889,,
1396,BARANZY Route de Mussy,,2.612932,51.500453,,
1397,BARANZY Route de Mussy,,2.612668,51.500568,,
1398,BARANZY Cercle au Chêne,,2.612376,51.502962,,
1399,BARANZY Cercle au Chêne,,2.612081,51.502898,,
1400,BARANZY Rue Belle Vue n°25,,2.612722,51.508253,,
1401,BARANZY Rue Belle Vue n°25,,2.612411,51.508123,,
1402,MUSSON Ecole Spéciale,,2.613770,51.512922,,
1403,MUSSON Ecole Spéciale,,2.613483,51.512912,,
1404,MUSSON Eglise,,2.615250,51.517101,,
1405,MUSSON Eglise,,2.615019,51.517263,,
1406,MUSSON Rue René Nicolas n°52,,2.616141,51.519816,,
1407,MUSSON Rue René Nicolas n°52,,2.615804,51.519742,,
1408,MUSSON Rue de Godincourt n°27,,2.617944,51.529680,,
1409,MUSSON Rue de Godincourt n°27,,2.617715,51.529416,,
1410,MUSSON Route de Rachecourt,,2.618379,51.526118,,
1411,MUSSON Route de Rachecourt,,2.618128,51.526051,,
1412,BARANZY Route de Gennevaux,,2.613414,51.500914,,
1413,BARANZY Route de Gennevaux,,2.613514,51.501062,,
1414,GENNEVAUX (MUSSON) Centre,,2.629225,51.513044,,
1415,GENNEVAUX (MUSSON) Centre,,2.629528,51.512905,,
1416,GENNEVAUX Route de Willancourt,,2.632161,51.513509,,
1417,GENNEVAUX Route de Willancourt,,2.632410,51.513388,,
1418,WILLANCOURT Faubourg St-Michel,,2.646239,51.511025,,
1419,WILLANCOURT Faubourg St-Michel,,2.646441,51.511146,,
1420,MUSSY-LA-VILLE Rue des Juifs,,2.632786,51.486055,,
1421,MUSSY-LA-VILLE Rue des Juifs,,2.632538,51.486033,,
1422,MUSSY-LA-VILLE Place,,2.634180,51.488963,,
1423,MUSSY-LA-VILLE Place,,2.633948,51.488876,,
1424,MUSSY-LA-VILLE Rue du Buau n°23,,2.625824,51.490043,,
1425,MUSSY-LA-VILLE Rue du Buau n°23,,2.626178,51.489950,,
1426,MUSSY-LA-VILLE Ets Wolff,,2.615445,51.487332,,
1427,MUSSY-LA-VILLE Ets Wolff,,2.615451,51.487156,,
1428,MUSSY-LA-VILLE Grand'Route,,2.611299,51.486673,,
1429,MUSSY-LA-VILLE Grand'Route,,2.610887,51.486837,,
1430,SIGNEULX Rue de Lorraine n°105,,2.607538,51.482142,,
1431,SIGNEULX Rue de Lorraine n°105,,2.607205,51.482101,,
1432,SIGNEULX Centre,,2.604634,51.476864,,
1433,SIGNEULX Centre,,2.604288,51.476628,,
1434,SIGNEULX Rue des Frères Sindic,,2.604442,51.471928,,
1435,SIGNEULX Rue des Frères Sindic,,2.604196,51.471975,,
1436,SIGNEULX Route de Bleid,,2.601688,51.465762,,
1437,SIGNEULX Route de Bleid,,2.601421,51.465726,,
1438,SIGNEULX Route de Bleid,,2.601888,51.465193,,
1439,LE CHACHY Le Chachy,,2.601809,51.459181,,
1440,LE CHACHY Le Chachy,,2.601571,51.458760,,
1441,SAINT-REMY Rue de l'Eglise,,2.585297,51.460951,,
1442,SAINT-REMY Rue de l'Eglise,,2.585301,51.460727,,
1443,GOMERY Centre,,2.621150,51.445178,,
1444,GOMERY Centre,,2.621024,51.445086,,
1445,GOMERY Rue Grande n°41,,2.615887,51.445892,,
1446,GOMERY Rue Grande n°41,,2.615989,51.445717,,
1447,GOMERY Carrefour Rue Grande,,2.610043,51.445590,,
1448,GOMERY Carrefour Rue Grande,,2.610064,51.445408,,
1449,GOMERY 4 Chemins,,2.609628,51.445107,,
1450,GOMERY 4 Chemins,,2.609370,51.445121,,
1451,BLEID Centre,,2.630509,51.464949,,
1452,BLEID Centre,,2.631325,51.465057,,
1453,BLEID Eglise,,2.631925,51.466858,,
1454,BLEID Eglise,,2.631936,51.467194,,
1455,GOMERY Rue de Gerlache n°1,,2.623427,51.445086,,
1456,GOMERY Rue de Gerlache n°1,,2.623704,51.445093,,
1457,BLEID Calvaire,,2.626363,51.461158,,
1458,BLEID Calvaire,,2.626515,51.460903,,
1459,LATOUR Rue Baillet Latour n°35,,2.612880,51.432545,,
1460,LATOUR Rue Baillet Latour n°35,,2.612637,51.432521,,
1461,LATOUR Eglise,,2.613994,51.429337,,
1462,LATOUR Eglise,,2.613751,51.429301,,
1463,CHENOIS Rue de la Vire n°131,,2.614421,51.423227,,
1464,CHENOIS Rue de la Vire n°131,,2.614154,51.423220,,
1465,CHENOIS Rue de la Vire n°93,,2.614365,51.418486,,
1466,CHENOIS Rue de la Vire n°93,,2.614158,51.419283,,
1467,CHENOIS Eglise,,2.612954,51.415477,,
1468,CHENOIS Eglise,,2.612703,51.415557,,
1469,CHENOIS Ecole,,2.616654,51.415348,,
1470,GRANDCOURT Rue de Deubry,,2.569049,51.449463,,
1471,GRANDCOURT Rue de Deubry,,2.569173,51.449321,,
1472,GRANDCOURT Rue de Longuyon,,2.566173,51.450007,,
1473,RUETTE Ecole,,2.580161,51.445066,,
1474,RUETTE Ecole,,2.579909,51.445059,,
1475,RUETTE Rue Abbé Dorion,,2.583111,51.444092,,
1476,RUETTE Rue Abbé Dorion,,2.583296,51.443999,,
1477,RUETTE Rue de Longuyon,,2.586005,51.444764,,
1478,RUETTE Rue de Longuyon,,2.585816,51.444570,,
1479,RUETTE Route de la Gare,,2.595230,51.445073,,
1480,RUETTE Route de la Gare,,2.595223,51.444885,,
1481,WOLKRANGE Chapelle N81,,2.736477,51.587387,,
1482,UDANGE Route du Hirtzenberg,,2.743961,51.561651,,
1483,UDANGE Route du Hirtzenberg,,2.744519,51.561651,,
1484,UDANGE Eglise,,2.740427,51.560048,,
1485,UDANGE Eglise,,2.740335,51.559885,,
1486,Udange Eglise,,2.739169,51.560139,,
1487,UDANGE Rue de Buvange n°45,,2.739861,51.563660,,
1488,UDANGE Rue de Buvange n°45,,2.739534,51.562876,,
1489,UDANGE Rue de l'Ecole n°94,,2.739834,51.566362,,
1490,UDANGE Rue de l'Ecole n°94,,2.739585,51.566338,,
1491,WOLKRANGE Rue d'Udange,,2.734704,51.574163,,
1492,WOLKRANGE Rue d'Udange,,2.734326,51.574175,,
1493,WOLKRANGE Eglise,,2.732999,51.578024,,
1494,WOLKRANGE Eglise,,2.733282,51.578178,,
1495,WOLKRANGE Eglise,,2.733400,51.578353,,
1496,WOLKRANGE Eglise,,2.733186,51.578458,,
1497,WOLKRANGE Carrefour Rue d'Udange,,2.729232,51.578071,,
1498,WOLKRANGE Carrefour Rue d'Udange,,2.729017,51.577898,,
1499,BUVANGE Rue Albert 1er,,2.722426,51.577977,,
1500,BUVANGE Rue Albert 1er,,2.722585,51.577821,,
1501,UDANGE Rue d'Habergy n°9,,2.737230,51.559096,,
1502,UDANGE Rue d'Habergy n°9,,2.737178,51.558928,,
1503,HONDELANGE Chapelle,,2.738170,51.588627,,
1504,HONDELANGE Chapelle,,2.737898,51.588482,,
1505,WOLKRANGE Rue Sainte-Croix,,2.737752,51.586700,,
1506,WOLKRANGE Rue Sainte-Croix,,2.737815,51.587124,,
1507,BEBANGE Rue du Panorama,,2.702642,51.569261,,
1508,BEBANGE Rue du Panorama,,2.702806,51.569114,,
1509,BEBANGE Eglise,,2.694853,51.567253,,
1510,BEBANGE Eglise,,2.695089,51.567361,,
1511,HABERGY Rue de la Source,,2.706831,51.558979,,
1512,HABERGY Rue de la Source,,2.706748,51.558712,,
1513,GUELFF Route de Bébange,,2.694742,51.554609,,
1514,GUELFF Route de Bébange,,2.694363,51.554289,,
1515,GUELFF Rue du Cimetière,,2.691335,51.551691,,
1516,GUELFF Rue du Cimetière,,2.691503,51.551543,,
1517,HABERGY Rue Jacques n°76,,2.696934,51.551440,,
1518,HABERGY Rue Jacques n°76,,2.696793,51.551193,,
1519,HABERGY Cabine Electrique,,2.702451,51.552521,,
1520,HABERGY Cabine Electrique,,2.702480,51.552384,,
1521,HABERGY Eglise,,2.703667,51.551594,,
1522,ANSART Rue du Centenaire,,2.835890,51.394882,,
1523,PONCELLE Monument,,2.795273,51.407138,,
1524,PONCELLE Monument,,2.795485,51.407090,,
1525,HAN Centre,,2.815092,51.404630,,
1526,HAN Centre,,2.815333,51.404567,,
1527,PONCELLE Rue du Plane,,2.802996,51.413407,,
1528,PONCELLE Rue du Plane,,2.803116,51.413244,,
1529,BELLEFONTAINE Rue de Virton,,2.781223,51.381654,,
1530,BELLEFONTAINE Rue de Virton,,2.780272,51.381465,,
1531,BELLEFONTAINE Eglise (Tintigny),,2.786586,51.381941,,
1532,BELLEFONTAINE Eglise (Tintigny),,2.786734,51.381808,,
1533,BELLEFONTAINE Carrefour,,2.787650,51.381928,,
1534,BELLEFONTAINE Carrefour,,2.787466,51.381845,,
1535,BELLEFONTAINE Rue de la Montante Roye n°37,,2.793440,51.385313,,
1536,BELLEFONTAINE Rue de la Montante Roye n°37,,2.793256,51.385038,,
1537,BELLEFONTAINE Rue de la Montante Roye n°3,,2.798428,51.387357,,
1538,BELLEFONTAINE Rue de la Montante Roye n°3,,2.798186,51.386971,,
1539,BELLEFONTAINE Rue de Villemont,,2.793890,51.380501,,
1540,BELLEFONTAINE Rue de Villemont,,2.793697,51.380424,,
1541,SAINT-VINCENT Rue des Rappes,,2.800280,51.376447,,
1542,SAINT-VINCENT Rue des Rappes,,2.800269,51.376070,,
1543,SAINT-VINCENT Rue des Chasseurs Ardennais,,2.804894,51.372385,,
1544,SAINT-VINCENT Rue des Chasseurs Ardennais,,2.804636,51.372363,,
1545,SAINT-VINCENT Eglise,,2.805472,51.367568,,
1546,SAINT-VINCENT Eglise,,2.805356,51.367462,,
1547,SAINT-VINCENT Calvaire,,2.803246,51.364860,,
1548,SAINT-VINCENT Calvaire,,2.802978,51.364880,,
1549,BREUVANNE Ecole,,2.832435,51.377527,,
1550,BREUVANNE Ecole,,2.832367,51.377697,,
1551,SAINT-VINCENT Ferme de Rawez,,2.792113,51.352411,,
1552,SAINT-VINCENT Ferme de Rawez,,2.791896,51.352435,,
1553,SAINT-VINCENT Rue de la Tayette,,2.810236,51.368131,,
1554,SAINT-VINCENT Rue de la Tayette,,2.810388,51.367992,,
1555,BREUVANNE Rue des Saucettes,,2.822893,51.375128,,
1556,BREUVANNE Rue des Saucettes,,2.822369,51.375740,,
1557,TINTIGNY Haut des Fagots,,2.820905,51.383301,,
1558,TINTIGNY Haut des Fagots,,2.821056,51.382527,,
1559,BREUVANNE Carrefour Haut des Fagots,,2.823267,51.382262,,
1560,BREUVANNE Carrefour Haut des Fagots,,2.822033,51.382192,,
1561,BREUVANNE Chapelle,,2.833280,51.378338,,
1562,BREUVANNE Chapelle,,2.832657,51.378500,,
1563,FRENOIS Lavoir,,2.828706,51.352046,,
1564,FRENOIS Lavoir,,2.828535,51.352017,,
1565,PROUVY Route d'Arlon,,2.830792,51.345834,,
1566,PROUVY Route d'Arlon,,2.830977,51.345891,,
1567,PROUVY Rue de Termes,,2.823190,51.344792,,
1568,PROUVY Rue de Termes,,2.823282,51.344577,,
1569,PROUVY Rue de Valansart,,2.817790,51.343157,,
1570,PROUVY Rue de Valansart,,2.817634,51.343092,,
1571,PROUVY Rue de Valansart,,2.817089,51.343056,,
1572,PROUVY Rue de Valansart,,2.817099,51.343220,,
1573,PROUVY Rue de la Chapelle,,2.814159,51.341833,,
1574,PROUVY Rue de la Chapelle,,2.814001,51.341858,,
1575,VALANSART Noue Collin Godet,,2.812471,51.329216,,
1576,VALANSART Noue Collin Godet,,2.812500,51.329067,,
1577,JAMOIGNE rue de Virton,,2.827314,51.327468,,
1578,JAMOIGNE Rue de Virton,,2.827324,51.327298,,
1579,JAMOIGNE Camping,,2.830450,51.325318,,
1580,JAMOIGNE Camping,,2.830190,51.325411,,
1581,JAMOIGNE Centre,,2.834411,51.328577,,
1582,JAMOIGNE Centre,,2.831698,51.327102,,
1583,JAMOIGNE Centre,,2.830792,51.327430,,
1584,JAMOIGNE Pont,,2.836435,51.328773,,
1585,JAMOIGNE Pont,,2.836439,51.328647,,
1586,JAMOIGNE La Hailleule,,2.840870,51.328721,,
1587,JAMOIGNE La Hailleule,,2.840668,51.328782,,
1588,JAMOIGNE La Hailleule,,2.839950,51.327937,,
1589,JAMOIGNE rue de Moyen,,2.836681,51.323882,,
1590,JAMOIGNE Rue de Moyen,,2.836545,51.324126,,
1591,JAMOIGNE Rue de la Chavée,,2.834713,51.333560,,
1592,JAMOIGNE Rue de la Chavée,,2.834484,51.333108,,
1593,JAMOIGNE Rue de la Chavée,,2.833647,51.333250,,
1594,JAMOIGNE Rue de Grigny,,2.834018,51.336648,,
1595,JAMOIGNE Rue de Grigny,,2.833855,51.336516,,
1596,ROMPONCELLE Centre,,2.828182,51.334050,,
1597,ROMPONCELLE Centre,,2.828259,51.333890,,
1598,LES BULLES Rue du Lieutenant Crépy,,2.847285,51.334432,,
1599,LES BULLES Rue du Lieutenant Crépy,,2.846953,51.334183,,
1600,LES BULLES Rue de la Chevrette,,2.849403,51.337516,,
1601,LES BULLES Rue de la Chevrette,,2.849241,51.337388,,
1602,JAMOIGNE Ecole Libre,,2.833573,51.330291,,
1603,VALANSART Centre,,2.819964,51.328703,,
1604,VALANSART Centre,,2.820091,51.328776,,
1605,LANEUVILLE Centre,,2.851105,51.305749,,
1606,LANEUVILLE Centre,,2.851167,51.305604,,
1607,MOYEN Rue des Fourneaux,,2.843505,51.308292,,
1608,MOYEN Rue des Fourneaux,,2.843706,51.308382,,
1609,MOYEN Pont,,2.841535,51.305420,,
1610,MOYEN Pont,,2.841632,51.305511,,
1611,IZEL Paquis de la Suisse,,2.845009,51.300915,,
1612,IZEL Rue du Haut Courtil,,2.839504,51.302133,,
1613,IZEL Rue du Haut Courtil,,2.839335,51.302083,,
1614,IZEL Centre,,2.831690,51.302569,,
1615,IZEL Centre,,2.831386,51.302628,,
1616,IZEL Rue du Fonteny,,2.831697,51.304492,,
1617,IZEL Athénée,,2.829270,51.305687,,
1618,IZEL Athénée,,2.829189,51.305323,,
1619,IZEL 4 Vents,,2.826663,51.309139,,
1620,IZEL 4 Vents,,2.826426,51.309123,,
1621,IZEL Ecole Fondamentale,,2.826116,51.306895,,
1622,IZEL Ecole Fondamentale,,2.825937,51.306861,,
1623,PIN Avenue Gilson,,2.829083,51.301159,,
1624,PIN Avenue Gilson,,2.829088,51.300995,,
1625,PIN Rue de l'Auwy,,2.823283,51.300922,,
1626,PIN Rue de l'Auwy,,2.822998,51.300724,,
1627,PIN Eglise,,2.821947,51.299692,,
1628,PIN Eglise,,2.821658,51.299750,,
1629,PIN Rue Albert 1er n°86,,2.823679,51.296324,,
1630,PIN Rue Albert 1er n°86,,2.823229,51.296480,,
1631,PIN Passage à Niveau,,2.824400,51.290118,,
1632,PIN Passage à Niveau,,2.824083,51.289749,,
1633,PIN Rue de l'Amérique n°41,,2.814221,51.302593,,
1634,PIN Rue de l'Amérique n°51,,2.811469,51.305119,,
1635,IZEL Gare,,2.808595,51.308771,,
1636,IZEL Rue de la Gare,,2.809820,51.309826,,
1637,IZEL Rue de la Gare,,2.809366,51.309656,,
1638,IZEL Carrefour Rue Nouvelle,,2.813193,51.310167,,
1639,IZEL Carrefour Rue Nouvelle,,2.813373,51.310061,,
1640,PIN Rue Nouvelle,,2.817197,51.306677,,
1641,PIN Rue Nouvelle,,2.816951,51.306737,,
1642,FLORENVILLE Les Hayons,,2.819958,51.273675,,
1643,FLORENVILLE Les Hayons,,2.819759,51.273618,,
1644,FLORENVILLE Rue d'Orval n°47,,2.830320,51.266734,,
1645,FLORENVILLE Rue d'Orval n°47,,2.830357,51.266492,,
1646,FLORENVILLE Rue d'Orval n°26,,2.836485,51.263605,,
1647,FLORENVILLE Rue d'Orval n°26,,2.836271,51.263548,,
1648,FLORENVILLE Place du Miroir - Quai n°4,,2.839152,51.260915,,
1649,FLORENVILLE Place du Miroir - Quai n°1,,2.839282,51.260801,,
1650,FLORENVILLE Place du Miroir - Quai n°2,,2.839145,51.260803,,
1651,FLORENVILLE Gendarmerie,,2.838865,51.265721,,
1652,FLORENVILLE Gendarmerie,,2.838709,51.265674,,
1653,FLORENVILLE Zoning II,,2.828540,51.279828,,
1654,FLORENVILLE Zoning II,,2.828431,51.279674,,
1655,FLORENVILLE Zoning I,,2.826595,51.283486,,
1656,FLORENVILLE Zoning I,,2.826415,51.283304,,
1657,FLORENVILLE Chemin de Martué,,2.856433,51.254278,,
1658,MARTUE Chapelle,,2.863180,51.257384,,
1659,MARTUE Route de Neufchâteau n°64,,2.866541,51.258910,,
1660,LACUISINE Devant le Bois,,2.887524,51.261844,,
1661,LACUISINE Rue de la Forêt,,2.883635,51.263387,,
1662,LACUISINE Le Daguet,,2.876073,51.264455,,
1663,LACUISINE Eglise,,2.868805,51.266127,,
1664,LACUISINE Ecole,,2.865762,51.267226,,
1665,LACUISINE Rue des Isles,,2.860978,51.269241,,
1666,LACUISINE Pont,,2.860435,51.271823,,
1667,LACUISINE Pont,,2.860374,51.271637,,
1668,MARTUE Route de Neufchâteau n°81,,2.871408,51.259934,,
1669,ORVAL Carrefour,,2.738530,51.283023,,
1670,ORVAL Carrefour,,2.738219,51.283070,,
1671,ORVAL Carrefour,,2.739320,51.283175,,
1672,LIMES Carrefour,,2.709272,51.320152,,
1673,LIMES Carrefour,,2.709076,51.320056,,
1674,LIMES Route d'Orval n°16,,2.711286,51.315214,,
1675,LIMES Route d'Orval n°16,,2.710897,51.315263,,
1676,LIMES Pisciculture,,2.707115,51.326754,,
1677,LIMES Pisciculture,,2.706755,51.326793,,
1678,GEROUVILLE Place de l'Eglise,,2.712908,51.335348,,
1679,GEROUVILLE Place de l'Eglise,,2.713005,51.335167,,
1680,GEROUVILLE Place du Tilleul,,2.716183,51.336886,,
1681,GEROUVILLE Place du Tilleul,,2.715976,51.336380,,
1682,GEROUVILLE Route de Meix,,2.720448,51.342333,,
1683,GEROUVILLE Route de Meix,,2.720139,51.342308,,
1684,GEROUVILLE Ferme La Barrière,,2.713582,51.355154,,
1685,GEROUVILLE Ferme La Barrière,,2.713614,51.354953,,
1686,SOMMETHONNE Place de France,,2.646236,51.348315,,
1687,SOMMETHONNE Place de France,,2.646098,51.348179,,
1688,SOMMETHONNE Rue Bousserez,,2.651628,51.349239,,
1689,SOMMETHONNE Rue Bousserez,,2.651788,51.349128,,
1690,VILLERS-DEVANT-ORVAL Garage,,2.726121,51.280997,,
1691,VILLERS-DEVANT-ORVAL Garage,,2.726011,51.280858,,
1692,VILLERS-DEVANT-ORVAL Hôtel du Val d'Or,,2.714945,51.279738,,
1693,VILLERS-DEVANT-ORVAL Hôtel du Val d'Or,,2.714947,51.279978,,
1694,VILLERS-DEVANT-ORVAL Home Saint-Jean Baptiste,,2.713212,51.276883,,
1695,VILLERS-DEVANT-ORVAL Lavoir,,2.713384,51.273804,,
1696,BUZENOL Centre Classes Vertes,,2.712712,51.438505,,
1697,BUZENOL Centre Classes Vertes,,2.713391,51.438423,,
1698,BUZENOL Ferme de Bar,,2.705382,51.437777,,
1699,BUZENOL Ferme de Bar,,2.705540,51.437956,,
1700,MORTINSART Centre,,2.851364,51.440154,,
1701,MORTINSART Centre,,2.851090,51.440059,,
1702,VILLERS-SUR-SEMOIS Rue du Tru,,2.838479,51.424621,,
1703,VILLERS-SUR-SEMOIS Rue du Tru,,2.838217,51.424743,,
1704,VILLERS-SUR-SEMOIS Rue Joseph Weicker,,2.839195,51.422553,,
1705,VILLERS-SUR-SEMOIS Rue Joseph Weicker,,2.839367,51.422573,,
1706,HARINSART Centre,,2.854947,51.405989,,
1707,HARINSART Centre,,2.854821,51.405880,,
1708,MARBEHAN Rectilux,,2.872493,51.405489,,
1709,MARBEHAN Rectilux,,2.872513,51.405319,,
1710,MARBEHAN Usine Lambiotte,,2.876633,51.406102,,
1711,MARBEHAN Usine Lambiotte,,2.876629,51.405901,,
1712,MARBEHAN Le Petit Bénéfice,,2.880025,51.407448,,
1713,MARBEHAN Le Petit Bénéfice,,2.879702,51.407052,,
1714,MARBEHAN Carrefour,,2.881381,51.407734,,
1715,MARBEHAN Carrefour,,2.881581,51.407932,,
1716,MARBEHAN Gare,,2.884631,51.409932,,
1717,MARBEHAN Gare,,2.884834,51.409881,,
1718,MARBEHAN Gare,,2.885008,51.409838,,
1719,MARBEHAN Carrefour,,2.881094,51.408321,,
1720,MARBEHAN Rue des Anglières n°44,,2.877926,51.411904,,
1721,MARBEHAN Rue des Anglières n°44,,2.877953,51.411548,,
1722,MARBEHAN Ecole Communale,,2.884726,51.406047,,
1723,MARBEHAN E.P.C.F.,,2.876165,51.405017,,
1724,MARBEHAN E.P.C.F.,,2.875977,51.405033,,
1725,MARBEHAN Rue du Chénel,,2.888957,51.405152,,
1726,MARBEHAN Rue du Chénel,,2.888917,51.404928,,
1727,MARBEHAN Chapelle,,2.890691,51.403787,,
1728,MARBEHAN Chapelle,,2.891479,51.402812,,
1729,ORSINFAING Rue du Moreau,,2.869048,51.400436,,
1730,ORSINFAING Rue du Moreau,,2.869262,51.401254,,
1731,ORSINFAING Eglise,,2.867471,51.396775,,
1732,ORSINFAING Eglise,,2.867065,51.397055,,
1733,MELLIER Les Forges,,2.926243,51.398481,,
1734,MELLIER Les Forges,,2.925996,51.398353,,
1735,MELLIER Rue de la Bourgeoise,,2.944704,51.396618,,
1736,MELLIER Rue de la Bourgeoise,,2.944624,51.396493,,
1737,MELLIER Gare,,2.947304,51.395821,,
1738,MELLIER Gare,,2.947564,51.395728,,
1739,MELLIER Rue de la Civanne,,2.945231,51.393126,,
1740,MELLIER Rue de la Civanne,,2.945430,51.392982,,
1741,MELLIER Rue de la Gare n°69,,2.951055,51.398269,,
1742,MELLIER Rue de la Gare n°69,,2.951467,51.398385,,
1743,MELLIER Rue des Sports,,2.954348,51.399006,,
1744,MELLIER Rue des Sports,,2.954182,51.398807,,
1745,MELLIER Rue du Boquillon,,2.946302,51.386883,,
1746,MELLIER Rue du Boquillon,,2.946034,51.386898,,
1747,ROSSIGNOL La Civanne,,2.870992,51.391266,,
1748,ROSSIGNOL La Civanne,,2.870609,51.391436,,
1749,ROSSIGNOL Rue de Marbehan,,2.872093,51.378366,,
1750,ROSSIGNOL Rue de Marbehan,,2.871907,51.378336,,
1751,ROSSIGNOL Carrefour,,2.870105,51.374637,,
1752,ROSSIGNOL Carrefour,,2.870362,51.375449,,
1753,ROSSIGNOL Carrefour,,2.869432,51.374889,,
1754,ROSSIGNOL Carrefour,,2.870777,51.375625,,
1755,ROSSIGNOL Rue de Neufchâteau,,2.874205,51.374769,,
1756,ROSSIGNOL Rue de Neufchâteau,,2.873560,51.374707,,
1757,ROSSIGNOL Rue Camille Joset,,2.865594,51.374266,,
1758,ROSSIGNOL Rue Camille Joset,,2.864542,51.373757,,
1759,TERMES Ecole,,2.853136,51.356613,,
1760,TERMES Ecole,,2.853184,51.356446,,
1761,TERMES Ecole,,2.852495,51.357317,,
1762,TERMES Ecole,,2.852358,51.357142,,
1763,TERMES Rue Sainte-Anne,,2.858214,51.355869,,
1764,TERMES Rue Sainte-Anne,,2.857697,51.355895,,
1765,TERMES Pont Charreau,,2.862692,51.353399,,
1766,TERMES Pont Charreau,,2.862428,51.353432,,
1767,TERMES Buisson des Roses,,2.846915,51.355428,,
1768,TERMES Buisson des Roses,,2.846811,51.355211,,
1769,THIAUMONT Monument,,2.865957,51.533588,,
1770,THIAUMONT Monument,,2.865761,51.533873,,
1771,TATTERT Chapelle,,2.863705,51.538422,,
1772,TATTERT Chapelle,,2.863076,51.538418,,
1773,LISCHERT Eglise,,2.875726,51.551176,,
1774,LOTTERT N40,,2.844040,51.529066,,
1775,LOTTERT N40,,2.844332,51.528948,,
1776,LOTTERT N40,,2.843415,51.529229,,
1777,LOTTERT N40,,2.843660,51.529241,,
1778,LOTTERT Eglise,,2.854575,51.530378,,
1779,LOTTERT Eglise,,2.855364,51.530326,,
1780,THIAUMONT Route de Lottert,,2.861552,51.531222,,
1781,THIAUMONT Route de Lottert,,2.862344,51.531238,,
1782,HACHY Calvaire,,2.837818,51.502325,,
1783,HACHY Calvaire,,2.837346,51.502220,,
1784,HACHY Rue Saint-Amand n°12,,2.841034,51.501764,,
1785,HACHY Rue Saint-Amand n°12,,2.841208,51.501563,,
1786,HACHY Place - Rue de la Foulie,,2.844121,51.500725,,
1787,HACHY Place - Rue de la Foulie,,2.843960,51.500948,,
1788,HACHY Rue de la Foulie,,2.843599,51.497788,,
1789,HACHY Rue de la Foulie,,2.843335,51.497946,,
1790,HACHY Passage à Niveau,,2.848252,51.492049,,
1791,HACHY Passage à Niveau,,2.848006,51.492073,,
1792,HACHY Rue du Bois Rond,,2.854489,51.499931,,
1793,HACHY Rue du Bois Rond,,2.854292,51.499824,,
1794,HACHY Carrefour,,2.873298,51.498350,,
1795,HACHY Carrefour,,2.873450,51.498206,,
1796,HACHY N40 - Carrefour Rue des Aubépines,,2.863984,51.507314,,
1797,HACHY N40 - Carrefour Rue des Aubépines,,2.863734,51.507215,,
1798,HACHY N40 - Carrefour Rue du Bois Rond,,2.872109,51.500493,,
1799,HACHY N40 - Carrefour Rue du Bois Rond,,2.872667,51.499724,,
1800,HACHY Rue des Aubépines,,2.851746,51.501002,,
1801,HACHY Rue des Aubépines,,2.851976,51.500862,,
1802,HACHY Manège,,2.858105,51.502116,,
1803,HACHY Manège,,2.858225,51.501951,,
1804,VLESSART Centre,,2.992082,51.480324,,
1805,LOUFTEMONT Rue Saint-Orban,,2.987344,51.469726,,
1806,LOUFTEMONT Rue Saint-Orban,,2.987010,51.469721,,
1807,LOUFTEMONT Carrefour Rue des Eaux Bonnes,,2.985161,51.467175,,
1808,LOUFTEMONT Carrefour Rue des Eaux Bonnes,,2.984907,51.467205,,
1809,LOUFTEMONT Rue du Pierroy,,2.983707,51.463175,,
1810,LOUFTEMONT Rue du Pierroy,,2.983588,51.463335,,
1811,BEHEME Centre,,2.976958,51.451671,,
1812,BEHEME Centre,,2.977041,51.451322,,
1813,ANLIER Eglise,,2.955601,51.462272,,
1814,ANLIER Grand-Route,,2.957676,51.462681,,
1815,ANLIER Grand-Route,,2.957434,51.462579,,
1816,ANLIER Rue de la Hasse,,2.961768,51.463892,,
1817,ANLIER Rue de la Hasse,,2.962429,51.463663,,
1818,LOUFTEMONT Rue du Terrage,,2.972839,51.469044,,
1819,LOUFTEMONT Rue du Terrage,,2.972719,51.468951,,
1820,LOUFTEMONT Rue Albert 1er,,2.976607,51.467857,,
1821,LOUFTEMONT Rue Albert 1er,,2.976755,51.467701,,
1822,LOUFTEMONT Ecole,,2.969312,51.466234,,
1823,BEHEME Rue du Tombois,,2.972440,51.454567,,
1824,BEHEME Rue du Tombois,,2.972478,51.454403,,
1825,VLESSART Cimetière,,2.988676,51.476758,,
1826,VLESSART Cimetière,,2.988593,51.476976,,
1827,LOUFTEMONT Ecole,,2.969258,51.466116,,
1828,LOUFTEMONT Ecole,,2.969377,51.465950,,
1829,THIBESSART Route de Mellier,,2.958502,51.409906,,
1830,THIBESSART Route de Mellier,,2.958785,51.409850,,
1831,THIBESSART Rue du Mont-de-Geai,,2.968513,51.418390,,
1832,THIBESSART Rue du Mont-de-Geai,,2.968220,51.418453,,
1833,RANCIMONT Route de Thibessart,,2.995184,51.420901,,
1834,RANCIMONT Route de Thibessart,,2.995075,51.421037,,
1835,RANCIMONT Rue Ranci,,2.998617,51.423822,,
1836,RANCIMONT Rue Ranci,,2.998384,51.423784,,
1837,RANCIMONT Route de Behème,,2.998132,51.424968,,
1838,RANCIMONT Route de Behème,,2.997946,51.424948,,
1839,RANCIMONT Route de Léglise,,3.002748,51.420086,,
1840,RANCIMONT Route de Leglise,,3.002909,51.420265,,
1841,THIBESSART Centre,,2.971419,51.418026,,
1842,THIBESSART Centre,,2.971969,51.418092,,
1843,THIBESSART Centre,,2.972740,51.417919,,
1844,THIBESSART Rue de la Mande Brat,,2.975026,51.418569,,
1845,THIBESSART Rue de la Mande Brat,,2.975012,51.418730,,
1846,LAVAUX Pont,,2.988395,51.383927,,
1847,LAVAUX Pont,,2.988109,51.383861,,
1848,NIVELET Route de Naleumont,,2.990137,51.389611,,
1849,NIVELET Route de Naleumont,,2.989879,51.389599,,
1850,NIVELET Rue de Rindchay n°17,,2.992948,51.393167,,
1851,NIVELET Rue de Rindchay n°17,,2.992553,51.393208,,
1852,NIVELET Carrefour,,2.995666,51.395146,,
1853,NIVELET Carrefour,,2.995501,51.395291,,
1854,NIVELET Carrefour,,2.995918,51.395287,,
1855,NIVELET Carrefour,,2.996109,51.395333,,
1856,LEGLISE Rue de la Distillerie,,2.999608,51.403001,,
1857,LEGLISE Rue de la Distillerie,,2.999123,51.402560,,
1858,LEGLISE Rue de la Tannerie,,3.001508,51.406992,,
1859,LEGLISE Rue de la Tannerie,,3.001309,51.406936,,
1860,LEGLISE Poste,,3.001348,51.408285,,
1861,LEGLISE Poste,,3.001385,51.408567,,
1862,LEGLISE Rue des Ecoliers,,3.003660,51.411140,,
1863,LEGLISE Rue du Luxembourg,,3.003025,51.413599,,
1864,LEGLISE Rue du Luxembourg,,3.002584,51.413908,,
1865,LEGLISE Route de Gennevaux,,3.007021,51.412914,,
1866,GENNEVAUX Chapelle,,3.018497,51.420311,,
1867,GENNEVAUX (LEGLISE) Centre,,3.020998,51.421502,,
1868,GENNEVAUX Rue de Brigaumont,,3.026313,51.421028,,
1869,LEGLISE Rue Haute Voye,,3.012697,51.410863,,
1870,WITTIMONT Rue Haute Voye,,3.023051,51.408569,,
1871,WITTIMONT Centre,,3.024593,51.410402,,
1872,LEGLISE Pont de l'Autoroute,,3.014728,51.397295,,
1873,LEGLISE Pont de l'Autoroute,,3.014362,51.397272,,
1874,BURNAIMONT Route de Nivelet,,3.016072,51.392021,,
1875,BURNAIMONT Route de Nivelet,,3.015758,51.392146,,
1876,NARCIMONT Rue du Couvent,,3.028944,51.419887,,
1877,LEGLISE Ecole,,2.999769,51.407494,,
1878,WITTIMONT Rue du Douanier n°64,,3.030390,51.414746,,
1879,NIVELET Rue des Jardinets,,2.999390,51.391551,,
1880,NIVELET Rue des Jardinets,,2.999260,51.391425,,
1881,NIVELET Rue de la Hazette,,3.001451,51.389556,,
1882,NIVELET Rue de la Hazette,,3.001289,51.389800,,
1883,LAVAUX Centre,,2.998938,51.384943,,
1884,LAVAUX Centre,,2.998664,51.384999,,
1885,LAVAUX Gare,,2.987639,51.384231,,
1886,LAVAUX Gare,,2.987722,51.384346,,
1887,LEGLISE Salle des Fêtes,,3.003933,51.410997,,
1888,OFFAING Route d'Hamipré n°27,,3.059019,51.369058,,
1889,OFFAING Route d'Hamipré n°27,,3.059214,51.369270,,
1890,OFFAING Centre,,3.054889,51.370589,,
1891,OFFAING Centre,,3.054559,51.370870,,
1892,OFFAING Route d'Arlon,,3.049996,51.372797,,
1893,OFFAING Route d'Arlon,,3.049915,51.373089,,
1894,NAMOUSSART Fond des Vannes,,3.063299,51.382868,,
1895,NAMOUSSART Fond des Vannes,,3.063252,51.383002,,
1896,MON IDEE Route de Namoussart,,3.071394,51.380272,,
1897,MON IDEE Route de Namoussart,,3.071354,51.380452,,
1898,MON IDEE Grand-Route 13,,3.075595,51.389601,,
1899,MON IDEE Grand-Route 13,,3.075799,51.389531,,
1900,NAMOUSSART Centre,,3.056598,51.384143,,
1901,NAMOUSSART Centre,,3.056521,51.383977,,
1902,MARBAY Centre,,3.047543,51.379233,,
1903,MARBAY Centre,,3.047806,51.379206,,
1904,MARBAY Grand Route,,3.037796,51.379502,,
1905,MARBAY Grand Route,,3.037422,51.379543,,
1906,SEMEL Ferme de Gérimont,,3.112188,51.333263,,
1907,SEMEL Ferme de Gérimont,,3.113158,51.332958,,
1908,SEMEL Centre,,3.102933,51.338009,,
1909,SEMEL Centre,,3.102196,51.338181,,
1910,NEUFCHATEAU Zoning Industriel,,3.087990,51.342272,,
1911,NEUFCHATEAU Zoning Industriel,,3.087496,51.342509,,
1912,NEUFCHATEAU Athénée,,3.075179,51.344638,,
1913,NEUFCHATEAU Calvaire,,3.076589,51.346589,,
1914,NEUFCHATEAU Gendarmerie,,3.072871,51.345569,,
1915,NEUFCHATEAU Institut St-Jospeh,,3.072064,51.344149,,
1916,NEUFCHATEAU Avenue de la Gare n°115,,3.080310,51.347993,,
1917,NEUFCHATEAU Avenue de la Gare n°115,,3.080431,51.348348,,
1918,NEUFCHATEAU Vieux-Chêne,,3.078790,51.349534,,
1919,NEUFCHATEAU Vieux-Chêne,,3.079234,51.349567,,
1920,NEUFCHATEAU Avenue de la Gare n°106,,3.084679,51.350401,,
1921,NEUFCHATEAU Avenue de la Gare n°106,,3.084462,51.350504,,
1922,NEUFCHÂTEAU Blanc Caillou,,3.068793,51.327057,,
1923,LONGLIER Clinique,,3.092549,51.357621,,
1924,LONGLIER Clinique,,3.092346,51.357735,,
1925,LONGLIER Ecole,,3.095355,51.359373,,
1926,LONGLIER Ecole,,3.094954,51.359328,,
1927,LONGLIER Maladrie n°45,,3.102688,51.357226,,
1928,LONGLIER Maladrie n°45,,3.102260,51.357455,,
1929,LONGLIER Route de Bastogne,,3.096314,51.362255,,
1930,LONGLIER Route de Bastogne,,3.096745,51.362391,,
1931,LONGLIER Route de Lahérie,,3.099364,51.365227,,
1932,LONGLIER Route de Lahérie,,3.099694,51.365204,,
1933,HAMIPRE Monument,,3.062323,51.356240,,
1934,HAMIPRE Monument,,3.062017,51.356408,,
1935,HAMIPRE Monument,,3.061923,51.356685,,
1936,HAMIPRE Eglise,,3.056945,51.356334,,
1937,HAMIPRE Eglise,,3.057404,51.356555,,
1938,NEUFCHATEAU Route d'Arlon,,3.064886,51.349320,,
1939,NEUFCHATEAU Route d'Arlon,,3.065187,51.349152,,
1940,NEUFCHATEAU Dépôt Dépôt Penning,,3.065309,51.345998,,
1941,NEUFCHATEAU Dépôt Penning,,3.065601,51.345965,,
1942,NEUFCHATEAU Hôtel de Ville,,3.067501,51.343568,,
1943,NEUFCHATEAU Rue de la Bataille,,3.068535,51.341494,,
1944,NEUFCHATEAU Rue de la Bataille,,3.068833,51.341096,,
1945,NEUFCHATEAU Camping,,3.057697,51.330360,,
1946,NEUFCHATEAU Camping,,3.057078,51.330419,,
1947,NEUFCHATEAU Camping,,3.057127,51.330204,,
1948,NEUFCHATEAU Parking St-Roch - Quai 1,,3.070305,51.341817,,
1949,NEUFCHATEAU Parking St-Roch - Quai 2,,3.070602,51.341817,,
1950,NEUFCHATEAU Parking St-Roch - Quai 3,,3.070932,51.341817,,
1951,NEUFCHÂTEAU Garage,,3.083674,51.343169,,
1952,NEUFCHÂTEAU Garage,,3.083895,51.342974,,
1953,HAMIPRE Chemin du Sart,,3.036014,51.355484,,
1954,HAMIPRE Chemin du Sart,,3.036282,51.355654,,
1955,LONGLIER Gare,,3.089167,51.353425,,
1956,LONGLIER Gare,,3.089388,51.353526,,
1957,BONNERT 4 Vents,,2.853009,51.581380,,
1958,BONNERT 4 Vents,,2.852350,51.581227,,
1959,BONNERT Eglise,,2.858280,51.590965,,
1960,BONNERT Eglise,,2.858340,51.590736,,
1961,BONNERT Rue de l'Ecole,,2.857018,51.589403,,
1962,BONNERT Rue du Vicinal n°7,,2.857308,51.589314,,
1963,BONNERT Rue du Vicinal n°7,,2.856985,51.589077,,
1964,FRASSEM Rue de la Cova,,2.842866,51.591282,,
1965,FRASSEM Rue de la Cova,,2.842613,51.591252,,
1966,BONNERT Rue du Maitrank,,2.848462,51.591551,,
1967,BONNERT Rue du Maitrank,,2.848733,51.591399,,
1968,FRASSEM Carrefour,,2.841032,51.594249,,
1969,FRASSEM Carrefour,,2.840725,51.594221,,
1970,FRASSEM Carrefour,,2.840293,51.594204,,
1971,FRASSEM Carrefour,,2.840142,51.594393,,
1972,FRASSEM Route de Diekirch n°311,,2.834765,51.591609,,
1973,FRASSEM Route de Diekirch n°311,,2.834687,51.591339,,
1974,BONNERT Rue du Vicinal n°125,,2.838851,51.586880,,
1975,BONNERT Rue du Vicinal n°125,,2.838718,51.586681,,
1976,BONNERT Rue du Vicinal n°79,,2.845377,51.587053,,
1977,BONNERT Rue du Vicinal n°79,,2.845460,51.586887,,
1978,BONNERT Rue des 4 Vents,,2.850263,51.580634,,
1979,BONNERT Rue des 4 Vents,,2.850524,51.580584,,
1980,ARLON Route de Bastogne - Garage Picard,,2.840950,51.583473,,
1981,ARLON Route de Bastogne - Garage Picard,,2.840524,51.583701,,
1982,GRENDEL Chapelle,,2.928677,51.582919,,
1983,GRENDEL Chapelle,,2.928433,51.582889,,
1984,GRENDEL Rue de Tontelange,,2.924542,51.583663,,
1985,GRENDEL Rue de Tontelange,,2.924594,51.583389,,
1986,GRENDEL Ferme n°131,,2.914627,51.586943,,
1987,GRENDEL Ferme n°131,,2.914251,51.586682,,
1988,GRENDEL Ferme n°135,,2.910318,51.585075,,
1989,GRENDEL Ferme n°135,,2.910395,51.585405,,
1990,TONTELANGE Ecole,,2.881951,51.584521,,
1991,TONTELANGE Ecole,,2.882176,51.584387,,
1992,TONTELANGE Chapelle,,2.885277,51.586681,,
1993,TONTELANGE Chapelle,,2.885621,51.586758,,
1994,TONTELANGE Route de Metzert,,2.880553,51.583560,,
1995,TONTELANGE Route de Metzert,,2.880948,51.583547,,
1996,METZERT Carrefour,,2.875300,51.577169,,
1997,METZERT Carrefour,,2.875199,51.576895,,
1998,METZERT Carrefour,,2.875838,51.576313,,
1999,METZERT Carrefour,,2.875790,51.576004,,
2000,METZERT N4,,2.878805,51.577372,,
2001,METZERT Rue de Beynert,,2.877668,51.572800,,
2002,METZERT Fontaine,,2.880149,51.571465,,
2003,METZERT Rue Neuve n°60,,2.884973,51.572574,,
2004,METZERT Rue Neuve,,2.888513,51.571977,,
2005,ATTERT Spetz,,2.906062,51.570329,,
2006,ATTERT Spetz,,2.904610,51.569727,,
2007,ATTERT Voie de la Liberté n°8,,2.912703,51.571525,,
2008,ATTERT Camping,,2.918198,51.570621,,
2009,ATTERT Camping,,2.918522,51.570086,,
2010,ATTERT Camping,,2.918198,51.570163,,
2011,ATTERT Maison Communale,,2.924144,51.569121,,
2012,ATTERT Maison Communale,,2.923641,51.569087,,
2013,ATTERT Voie de la Liberté n°38,,2.933697,51.563852,,
2014,POST Cabine Electrique,,2.922638,51.558684,,
2015,POST Cabine Electrique,,2.922473,51.558431,,
2016,POST Ecole,,2.923036,51.557026,,
2017,POST Ecole,,2.922797,51.556730,,
2018,POST Route de Nobressart,,2.918056,51.557673,,
2019,POST Route de Nobressart,,2.917519,51.557298,,
2020,SCHADECK Bretelle N4,,2.915254,51.566945,,
2021,SCHADECK Bretelle N4,,2.915404,51.566678,,
2022,SCHADECK R de l'Inst Molitor 58,,2.914466,51.564194,,
2023,SCHADECK R de l'Inst Molitor 58,,2.914007,51.563991,,
2024,POST Ferme Rose,,2.919550,51.560130,,
2025,POST Ferme Rose,,2.919516,51.559872,,
2026,SCHADECK R de l'Inst Molitor 9,,2.909847,51.566951,,
2027,HEINSTERT Route de Habay,,2.928895,51.526715,,
2028,HEINSTERT Route de Habay,,2.929190,51.526626,,
2029,HEINSTERT Rue de Vlessart,,2.934862,51.532279,,
